"Clave_Entidad","Clave_Municipio","Nombre","Longitud","Latitud","Poblacion_2019"
1,1,"Aguascalientes",-102.2958029,21.8114362,949277
1,2,"Asientos",-102.0456381,22.1265082,50354
1,3,"Calvillo",-102.7049039,21.9006945,60181
1,4,"Cosío",-102.2970417,22.3606267,16766
1,5,"Jesús María",-102.4456493,21.9321175,127835
1,6,"Pabellón de Arteaga",-102.3016772,22.1045424,49479
1,7,"Rincón de Romos",-102.3407287,22.2674077,57359
1,8,"San José de Gracia",-102.5258387,22.1466346,9551
1,9,"Tepezalá",-102.1921306,22.2369738,22468
1,10,"El Llano",-102.0353985,21.9215194,21710
1,11,"San Francisco de los Romo",-102.2290214,22.0330705,50441
2,1,"Ensenada",-114.9572143,30.0365095,527584
2,2,"Mexicali",-115.166229,31.7417443,1069676
2,3,"Tecate",-116.2689752,32.4408887,112147
2,4,"Tijuana",-116.81997,32.404072,1763197
2,5,"Playas de Rosarito",-116.8907398,32.2529419,105957
3,1,"Comondú",-111.8200792,25.4913477,81620
3,2,"Mulegé",-113.2306343,27.286099,66852
3,3,"La Paz",-110.663312,24.1904742,296751
3,8,"Los Cabos",-109.7532778,23.2766125,321758
3,9,"Loreto",-111.4484795,25.9531746,21138
4,1,"Calkiní",-90.2180314,20.3843893,62335
4,2,"Campeche",-90.2676481,19.6170176,312045
4,3,"Carmen",-91.4832287,18.5240422,270642
4,4,"Champotón",-90.4993197,19.1342188,98215
4,5,"Hecelchakán",-90.135418,20.1244417,34140
4,6,"Hopelchén",-89.609644,19.4740717,43334
4,7,"Palizada",-91.9738727,18.2735998,9743
4,8,"Tenabo",-90.2330174,19.9696386,11734
4,9,"Escárcega",-90.4743501,18.5505983,62633
4,10,"Calakmul",-89.6615735,18.4028291,31260
4,11,"Candelaria",-90.7165644,18.0990385,47965
5,1,"Abasolo",-101.2457824,27.1223947,1115
5,2,"Acuña",-102.0100266,29.4326023,161560
5,3,"Allende",-100.9160028,28.2783483,24462
5,4,"Arteaga",-100.6423697,25.3413577,25145
5,5,"Candela",-100.7992504,26.8524528,1921
5,6,"Castaños",-101.3869252,26.5862387,30142
5,7,"Cuatro Ciénegas",-102.2989827,26.6991039,14460
5,8,"Escobedo",-101.2795895,27.3060652,3307
5,9,"Francisco I. Madero",-103.1808574,26.3201458,63527
5,10,"Frontera",-101.5282729,26.9476979,86818
5,11,"General Cepeda",-101.55104,25.5216906,13339
5,12,"Guerrero",-100.3937925,28.0974067,1956
5,13,"Hidalgo",-100.050503,27.8393212,1877
5,14,"Jiménez",-100.9512641,29.0027023,10917
5,15,"Juárez",-100.6933784,27.6565463,1701
5,16,"Lamadrid",-101.9137193,27.1505472,1965
5,17,"Matamoros",-103.2150637,25.5598249,118161
5,18,"Monclova",-101.194394,26.8968568,248170
5,19,"Morelos",-101.0833512,28.3277474,9299
5,20,"Múzquiz",-101.9004663,28.403018,74722
5,21,"Nadadores",-101.7654256,27.2277314,7071
5,22,"Nava",-100.6204887,28.4964387,32693
5,23,"Ocampo",-102.8928889,27.9656187,11628
5,24,"Parras",-102.114668,25.5038717,48376
5,25,"Piedras Negras",-100.6144697,28.7798203,175285
5,26,"Progreso",-101.021482,27.4214224,3626
5,27,"Ramos Arizpe",-101.2820653,25.9137476,100825
5,28,"Sabinas",-101.1430006,27.9228717,68571
5,29,"Sacramento",-101.7564941,26.9398326,2577
5,30,"Saltillo",-101.1251087,25.0291476,856542
5,31,"San Buenaventura",-101.9688792,27.8401293,25440
5,32,"San Juan de Sabinas",-101.3897589,28.0639562,46775
5,33,"San Pedro",-102.7179972,26.0840422,115650
5,34,"Sierra Mojada",-103.6101086,27.4817677,7562
5,35,"Torreón",-103.2489193,25.1700752,734103
5,36,"Viesca",-102.9249683,25.221869,23460
5,37,"Villa Unión",-100.7803082,28.0973927,6803
5,38,"Zaragoza",-101.3950114,28.8119742,14092
6,1,"Armería",-103.9984204,19.0092462,31935
6,2,"Colima",-103.6326678,19.1160961,166773
6,3,"Comala",-103.7699941,19.3934434,23606
6,4,"Coquimatlán",-103.9207528,19.1881292,21891
6,5,"Cuauhtémoc",-103.5954986,19.3268438,32357
6,6,"Ixtlahuacán",-103.6813453,18.9676148,5998
6,7,"Manzanillo",-104.2997986,19.149497,199691
6,8,"Minatitlán",-104.031057,19.3720865,9536
6,9,"Tecomán",-105.0322106,18.8642325,132639
6,10,"Villa de Álvarez",-103.8444266,19.3096017,148416
7,1,"Acacoyagua",-92.6816854,15.4141398,19567
7,2,"Acala",-92.8409025,16.5377529,34000
7,3,"Acapetahua",-92.7740248,15.2314145,30682
7,4,"Altamirano",-91.862573,16.6618845,35391
7,5,"Amatán",-92.8573383,17.3855939,21698
7,6,"Amatenango de la Frontera",-92.0971634,15.5568351,33397
7,7,"Amatenango del Valle",-92.3954271,16.5152896,10629
7,8,"Angel Albino Corzo",-92.680448,15.758148,30624
7,9,"Arriaga",-93.9373605,16.2488839,43851
7,10,"Bejucal de Ocampo",-92.1612927,15.4917552,8230
7,11,"Bella Vista",-92.2424169,15.6195846,21755
7,12,"Berriozábal",-93.3190748,16.8666067,55751
7,13,"Bochil",-92.9587902,17.0141228,37486
7,14,"El Bosque",-92.7412924,17.0317482,23893
7,15,"Cacahoatán",-92.1641345,15.0862411,49814
7,16,"Catazajá",-91.9976038,17.7798713,18794
7,17,"Cintalapa",-93.8674714,16.7129625,92167
7,18,"Coapilla",-93.1260784,17.1205749,9902
7,19,"Comitán de Domínguez",-92.1789741,16.2968836,167772
7,20,"La Concordia",-92.771243,15.9608949,49962
7,21,"Copainalá",-93.2528605,17.0941744,23775
7,22,"Chalchihuitán",-92.6118017,17.0212705,17763
7,23,"Chamula",-92.6801691,16.8193658,93731
7,24,"Chanal",-92.2169704,16.6115332,13088
7,25,"Chapultenango",-93.1315376,17.3267974,8180
7,26,"Chenalhó",-92.5704352,16.9501572,42709
7,27,"Chiapa de Corzo",-92.9706316,16.5980712,109138
7,28,"Chiapilla",-92.7259441,16.5539728,6325
7,29,"Chicoasén",-93.11152,16.995333,5558
7,30,"Chicomuselo",-92.3912899,15.7990323,37495
7,31,"Chilón",-92.0351419,17.1096912,137464
7,32,"Escuintla",-92.5581684,15.3644325,34212
7,33,"Francisco León",-93.2761868,17.2940736,8160
7,34,"Frontera Comalapa",-92.0877668,15.7626514,79487
7,35,"Frontera Hidalgo",-92.213199,14.7500093,15473
7,36,"La Grandeza",-92.2184012,15.5129967,7803
7,37,"Huehuetán",-92.4237733,15.009404,37741
7,38,"Huixtán",-92.3996339,16.6942774,25235
7,39,"Huitiupán",-92.694927,17.2431673,24905
7,40,"Huixtla",-92.5468543,15.0969859,58521
7,41,"La Independencia",-91.7957948,16.2047023,48847
7,42,"Ixhuatán",-92.9786292,17.2985325,12133
7,43,"Ixtacomitán",-93.0990228,17.4213978,11650
7,44,"Ixtapa",-92.8969951,16.8179507,29338
7,45,"Ixtapangajoya",-92.9755913,17.4668727,5920
7,46,"Jiquipilas",-93.6720762,16.5227356,42750
7,47,"Jitotol",-92.874416,17.0896184,22234
7,48,"Juárez",-93.1933354,17.6994472,23264
7,49,"Larráinzar",-92.7766775,16.9243837,25273
7,50,"La Libertad",-91.7510745,17.6066362,5393
7,51,"Mapastepec",-92.8916348,15.4610121,51130
7,52,"Las Margaritas",-91.7402829,16.3856026,132515
7,53,"Mazapa de Madero",-92.1857638,15.3727663,8447
7,54,"Mazatán",-92.4975527,14.8806048,31401
7,55,"Metapa",-92.2015997,14.8216636,6107
7,56,"Mitontic",-92.5631009,16.8748101,13075
7,57,"Motozintla",-92.3314642,15.3138259,78642
7,58,"Nicolás Ruíz",-92.6100504,16.4382004,4679
7,59,"Ocosingo",-91.3374987,16.7020939,235526
7,60,"Ocotepec",-93.1738763,17.2207974,13605
7,61,"Ocozocoautla de Espinosa",-93.4922548,16.8279025,98823
7,62,"Ostuacán",-93.3996611,17.432363,19719
7,63,"Osumacinta",-93.0838036,16.8952333,4070
7,64,"Oxchuc",-92.2747865,16.780998,51087
7,65,"Palenque",-91.8126556,17.4440756,129656
7,66,"Pantelhó",-92.4640654,17.0601035,23810
7,67,"Pantepec",-93.0569002,17.189186,13154
7,68,"Pichucalco",-93.1991408,17.5305765,33971
7,69,"Pijijiapan",-93.1924013,15.6695561,57452
7,70,"El Porvenir",-92.2639256,15.4325464,15310
7,71,"Villa Comaltitlán",-92.6195665,15.1654225,31199
7,72,"Pueblo Nuevo Solistahuacán",-92.8812099,17.2178285,34756
7,73,"Rayón",-92.9965755,17.1922205,10416
7,74,"Reforma",-93.2293806,17.8642233,48683
7,75,"Las Rosas",-92.3647268,16.3653076,30482
7,76,"Sabanilla",-92.6107622,17.3198257,29002
7,77,"Salto de Agua",-92.1871415,17.437619,67858
7,78,"San Cristóbal de las Casas",-92.5899461,16.6782971,227640
7,79,"San Fernando",-93.2096783,16.9131332,42146
7,80,"Siltepec",-92.456223,15.54732,39245
7,81,"Simojovel",-92.6250151,17.1389229,47262
7,82,"Sitalá",-92.3482895,17.037266,15212
7,83,"Socoltenango",-92.3759458,16.1064276,19926
7,84,"Solosuchiapa",-93.0047906,17.3869923,8754
7,85,"Soyaló",-92.9886746,16.9259689,11580
7,86,"Suchiapa",-93.1363322,16.5855456,26044
7,87,"Suchiate",-92.2271212,14.6393835,41639
7,88,"Sunuapa",-93.2515876,17.4888564,2564
7,89,"Tapachula",-92.3047968,14.933968,378562
7,90,"Tapalapa",-93.1123144,17.2201135,4311
7,91,"Tapilula",-92.9972769,17.2509691,13981
7,92,"Tecpatán",-93.5332018,17.1982563,44968
7,93,"Tenejapa",-92.4720058,16.8331885,47115
7,94,"Teopisca",-92.5088123,16.5611029,46417
7,96,"Tila",-92.4858282,17.3791893,84203
7,97,"Tonalá",-93.6905281,15.9969906,96680
7,98,"Totolapa",-92.6599633,16.5151553,7780
7,99,"La Trinitaria",-91.8994002,16.0244431,83922
7,100,"Tumbalá",-92.2696253,17.3007898,36895
7,101,"Tuxtla Gutiérrez",-93.137285,16.7394466,653552
7,102,"Tuxtla Chico",-92.1986782,14.8941061,45164
7,103,"Tuzantán",-92.4115644,15.1404414,34232
7,104,"Tzimol",-92.24644,16.1240831,16626
7,105,"Unión Juárez",-92.1025499,15.0599527,16553
7,106,"Venustiano Carranza",-92.6078968,16.3173126,70178
7,107,"Villa Corzo",-93.1976068,16.1121521,84837
7,108,"Villaflores",-93.3751882,16.3461437,114227
7,109,"Yajalón",-92.3258489,17.1855592,41012
7,110,"San Lucas",-92.7237813,16.6224703,7795
7,111,"Zinacantán",-92.781981,16.7219159,44133
7,112,"San Juan Cancuc",-92.3916679,16.9301599,37058
7,113,"Aldama",-92.6901761,16.9218309,7036
7,114,"Benemérito de las Américas",-90.5625088,16.281836,21256
7,115,"Maravilla Tenejapa",-91.2485949,16.1991939,13581
7,116,"Marqués de Comillas",-90.7434229,16.2463501,12026
7,117,"Montecristo de Guerrero",-92.6643904,15.6716777,8267
7,118,"San Andrés Duraznal",-92.8030898,17.1540145,5729
7,119,"Santiago el Pinar",-92.7215487,16.949364,3919
8,1,"Ahumada",-106.3806921,30.4492369,12851
8,2,"Aldama",-105.588569,29.0732862,25836
8,3,"Allende",-105.3054928,27.0949484,9333
8,4,"Aquiles Serdán",-105.8235383,28.5822242,18546
8,5,"Ascensión",-107.5198552,31.3319745,26197
8,6,"Bachíniva",-107.2916428,28.8579967,6633
8,7,"Balleza",-106.5429423,26.7530624,17738
8,8,"Batopilas",-107.6932965,26.9454501,12974
8,9,"Bocoyna",-107.5801171,27.8078399,29752
8,10,"Buenaventura",-107.1214006,30.0581388,24728
8,11,"Camargo",-104.4236563,28.0336977,54608
8,12,"Carichí",-107.0632506,27.8101458,9925
8,13,"Casas Grandes",-108.2022934,30.1939194,11947
8,14,"Coronado",-105.0699625,26.6339395,2327
8,15,"Coyame del Sotol",-105.2077835,29.7570388,1793
8,16,"La Cruz",-105.0448645,27.897653,4174
8,17,"Cuauhtémoc",-106.9486937,28.7234698,178737
8,18,"Cusihuiriachi",-106.8969304,28.2116342,5069
8,19,"Chihuahua",-106.2325259,29.0005522,937233
8,20,"Chínipas",-108.516366,27.4559564,8464
8,21,"Delicias",-105.4918591,28.1194916,158026
8,22,"Dr. Belisario Domínguez",-106.4611469,27.999972,2740
8,23,"Galeana",-107.6446404,30.1607489,6931
8,24,"Santa Isabel",-106.3495511,28.321201,4252
8,25,"Gómez Farías",-107.7373156,29.3365632,9464
8,26,"Gran Morelos",-106.5694225,28.298785,2776
8,27,"Guachochi",-107.2477649,27.1504417,49638
8,28,"Guadalupe",-105.6405097,30.8272701,5237
8,29,"Guadalupe y Calvo",-107.0339368,26.1679803,58270
8,30,"Guazapares",-108.2740565,27.3909514,8541
8,31,"Guerrero",-107.5580535,28.3850977,41970
8,32,"Hidalgo del Parral",-105.6970367,27.1290434,116555
8,33,"Huejotitán",-106.0679377,27.0693183,1056
8,34,"Ignacio Zaragoza",-107.7235407,29.7220934,7400
8,35,"Janos",-108.4502245,30.8493527,11609
8,36,"Jiménez",-104.3907025,27.0821086,45271
8,37,"Juárez",-106.5641134,31.4496653,1455923
8,38,"Julimes",-105.0545047,28.5410107,4874
8,39,"López",-105.0109759,26.9262214,4294
8,40,"Madera",-108.3293237,29.3269333,30819
8,41,"Maguarichi",-107.9732952,27.8363033,1740
8,42,"Manuel Benavides",-103.8246345,28.9288978,1547
8,43,"Matachí",-107.7206325,28.8241005,3267
8,44,"Matamoros",-105.5229179,26.7250574,4781
8,45,"Meoqui",-105.5014636,28.3506236,47759
8,46,"Morelos",-107.7281308,26.5715348,8319
8,47,"Moris",-108.7372541,28.1527471,5487
8,48,"Namiquipa",-107.1403845,29.2952601,25165
8,49,"Nonoava",-106.6842544,27.4245847,2810
8,50,"Nuevo Casas Grandes",-107.7290615,30.5328491,66536
8,51,"Ocampo",-108.204804,28.1536304,7904
8,52,"Ojinaga",-104.5252959,29.3642199,29528
8,53,"Praxedis G. Guerrero",-105.9258836,31.2381629,5252
8,54,"Riva Palacio",-106.6170454,28.806295,8253
8,55,"Rosales",-105.7478247,28.205049,18197
8,56,"Rosario",-106.3146864,27.2688986,2166
8,57,"San Francisco de Borja",-106.7351865,27.8924988,2412
8,58,"San Francisco de Conchos",-105.3622558,27.5821277,2809
8,59,"San Francisco del Oro",-105.9462383,26.8852517,5405
8,60,"Santa Bárbara",-105.7829219,26.8039227,11416
8,61,"Satevó",-106.1930861,27.7786176,3380
8,62,"Saucillo",-105.3430296,28.0010894,33659
8,63,"Temósachic",-108.0848278,28.7147746,6903
8,64,"El Tule",-106.2974379,27.045102,1821
8,65,"Urique",-107.9764116,27.226301,22055
8,66,"Uruachi",-108.506556,27.8616405,6685
8,67,"Valle de Zaragoza",-105.8083277,27.4870544,5558
9,2,"Azcapotzalco",-99.1821069,19.4853286,409860
9,3,"Coyoacán",-99.1503764,19.3266673,623683
9,4,"Cuajimalpa de Morelos",-99.3107285,19.3246343,199380
9,5,"Gustavo A. Madero",-99.1158642,19.5040652,1180729
9,6,"Iztacalco",-99.0943298,19.3969119,394448
9,7,"Iztapalapa",-99.056799,19.3491663,1823468
9,8,"La Magdalena Contreras",-99.2684129,19.2689765,245375
9,9,"Milpa Alta",-99.0510954,19.1394566,139035
9,10,"Álvaro Obregón",-99.2468197,19.3361756,755620
9,11,"Tláhuac",-99.0028216,19.2769984,367406
9,12,"Tlalpan",-99.2062208,19.1983397,681728
9,13,"Xochimilco",-99.0903636,19.245145,419426
9,14,"Benito Juárez",-99.1611347,19.3806424,430354
9,15,"Cuauhtémoc",-99.1490558,19.4313734,547703
9,16,"Miguel Hidalgo",-99.2045669,19.4280624,378708
9,17,"Venustiano Carranza",-99.0931058,19.4304955,434290
10,1,"Canatlán",-104.9358862,24.5111158,34485
10,2,"Canelas",-106.451108,25.072722,4782
10,3,"Coneto de Comonfort",-104.7837417,25.0339757,4630
10,4,"Cuencamé",-103.7002874,24.6948056,37200
10,5,"Durango",-104.8437012,23.9704825,688253
10,6,"General Simón Bolívar",-103.2120786,24.7615132,10753
10,7,"Gómez Palacio",-103.4906318,25.7279773,366852
10,8,"Guadalupe Victoria",-104.0732779,24.4126744,37520
10,9,"Guanaceví",-106.0672243,25.9963157,10487
10,10,"Hidalgo",-104.8170837,26.0903384,4156
10,11,"Indé",-104.9955371,25.7262263,5347
10,12,"Lerdo",-103.6858344,25.4776453,163121
10,13,"Mapimí",-104.1313285,26.1459985,28029
10,14,"Mezquital",-104.5506881,23.0021139,40203
10,15,"Nazas",-104.0776859,25.2470983,13765
10,16,"Nombre de Dios",-104.2111147,23.8138602,20698
10,17,"Ocampo",-105.6766932,26.4818729,10250
10,18,"El Oro",-105.2158506,25.5490241,12178
10,19,"Otáez",-105.9364287,24.701449,5494
10,20,"Pánuco de Coronado",-104.3540418,24.4948576,12846
10,21,"Peñón Blanco",-104.0823245,24.7859871,11462
10,22,"Poanas",-104.0219477,24.0035552,26760
10,23,"Pueblo Nuevo",-105.3142656,23.4114424,52839
10,24,"Rodeo",-104.5616237,25.1953037,14252
10,25,"San Bernardo",-105.6724474,26.1841149,3453
10,26,"San Dimas",-105.7422846,24.2284869,20112
10,27,"San Juan de Guadalupe",-102.7180363,24.6475261,5910
10,28,"San Juan del Río",-104.4704012,24.8073534,13188
10,29,"San Luis del Cordero",-104.3064859,25.3761025,2242
10,30,"San Pedro del Gallo",-104.3982451,25.621899,1622
10,31,"Santa Clara",-103.4137784,24.4977605,7458
10,32,"Santiago Papasquiaro",-105.6904219,24.984157,50718
10,33,"Súchil",-104.149631,23.436883,6770
10,34,"Tamazula",-106.7119943,24.9467571,27424
10,35,"Tepehuanes",-106.0616254,25.4502442,11521
10,36,"Tlahualilo",-103.6254838,26.3449639,24636
10,37,"Topia",-106.5897443,25.2567627,9753
10,38,"Vicente Guerrero",-103.9510545,23.73334,23153
10,39,"Nuevo Ideal",-105.0380312,24.8466949,28630
11,1,"Abasolo",-101.536012,20.533231,94843
11,2,"Acámbaro",-100.7519672,20.0524669,118172
11,3,"San Miguel de Allende",-100.7377274,20.9252506,181232
11,4,"Apaseo el Alto",-100.5735201,20.4218414,71665
11,5,"Apaseo el Grande",-100.6217358,20.5755119,97922
11,6,"Atarjea",-99.8044443,21.2651994,5536
11,7,"Celaya",-100.787865,20.5375656,526166
11,8,"Manuel Doblado",-101.879784,20.7129473,40360
11,9,"Comonfort",-100.7911227,20.7412725,86525
11,10,"Coroneo",-100.3835978,20.2170008,12896
11,11,"Cortazar",-100.9383703,20.4291136,100521
11,12,"Cuerámaro",-101.6680096,20.6152262,29733
11,13,"Doctor Mora",-100.3596342,21.1416036,25441
11,14,"Dolores Hidalgo Cuna de la Independencia Nacional",-100.9347773,21.1470169,159882
11,15,"Guanajuato",-101.2373289,21.0184543,196104
11,16,"Huanímaro",-101.499004,20.3673654,22442
11,17,"Irapuato",-101.3683208,20.6998135,604778
11,18,"Jaral del Progreso",-101.0520887,20.3587971,40743
11,19,"Jerécuaro",-100.5078824,20.1971083,51244
11,20,"León",-101.6224026,21.1247492,1663404
11,21,"Moroleón",-101.2446893,20.0843156,53960
11,22,"Ocampo",-101.472997,21.5795705,24587
11,23,"Pénjamo",-101.8158452,20.401618,159111
11,24,"Pueblo Nuevo",-101.3612588,20.5499275,12493
11,25,"Purísima del Rincón",-101.9285631,20.9275157,84709
11,26,"Romita",-101.5951285,20.8257897,62193
11,27,"Salamanca",-101.1650961,20.6251101,290737
11,28,"Salvatierra",-100.915131,20.2075615,106199
11,29,"San Diego de la Unión",-100.8464137,21.4421659,41274
11,30,"San Felipe",-101.2336989,21.5032001,117537
11,31,"San Francisco del Rincón",-101.7885196,20.9191241,125119
11,32,"San José Iturbide",-100.3885917,21.0023218,82620
11,33,"San Luis de la Paz",-100.4762496,21.3993684,126739
11,34,"Santa Catarina",-100.0719018,21.1506778,5542
11,35,"Santa Cruz de Juventino Rosas",-100.9940839,20.6741044,87900
11,36,"Santiago Maravatío",-100.9903644,20.1582334,7255
11,37,"Silao de la Victoria",-101.4377836,20.9631154,198812
11,38,"Tarandacuao",-100.5289057,20.0044796,12849
11,39,"Tarimoro",-100.7414966,20.2967359,36430
11,40,"Tierra Blanca",-100.1560062,21.0322912,20053
11,41,"Uriangato",-101.152616,20.1196924,66580
11,42,"Valle de Santiago",-101.2705609,20.3783282,151925
11,43,"Victoria",-100.21461,21.3659573,21378
11,44,"Villagrán",-100.9925124,20.5419619,62371
11,45,"Xichú",-99.9785213,21.3567597,12205
11,46,"Yuriria",-101.2255261,20.183151,73531
12,1,"Acapulco de Juárez",-99.7143089,16.9572002,837914
12,2,"Ahuacuotzingo",-98.9513727,17.7522733,27234
12,3,"Ajuchitlán del Progreso",-100.6077339,17.9190154,38970
12,4,"Alcozauca de Guerrero",-98.3661073,17.3758991,19997
12,5,"Alpoyeca",-98.5105692,17.6422353,6931
12,6,"Apaxtla",-99.9808974,18.0912311,11751
12,7,"Arcelia",-100.1987864,18.252619,32587
12,8,"Atenango del Río",-99.0699587,18.1443753,8889
12,9,"Atlamajalcingo del Monte",-98.582686,17.2702391,5328
12,10,"Atlixtac",-98.9030451,17.5143374,28009
12,11,"Atoyac de Álvarez",-100.3420678,17.3328222,62561
12,12,"Ayutla de los Libres",-99.0675364,16.9572711,69903
12,13,"Azoyú",-98.5724042,16.6836011,13451
12,14,"Benito Juárez",-100.4271173,17.0965418,15885
12,15,"Buenavista de Cuéllar",-99.4207334,18.4615699,13704
12,16,"Coahuayutla de José María Izazaga",-101.6494419,18.2830262,12759
12,17,"Cocula",-99.7136637,18.1322958,14084
12,18,"Copala",-98.9306042,16.6080341,14580
12,19,"Copalillo",-99.0520425,17.982143,15084
12,20,"Copanatoyac",-98.7019002,17.432622,20657
12,21,"Coyuca de Benítez",-100.0589688,17.1425486,78698
12,22,"Coyuca de Catalán",-100.9299064,18.0817944,40610
12,23,"Cuajinicuilapa",-98.5176704,16.4619685,27807
12,24,"Cualác",-98.6712625,17.7382914,7773
12,25,"Cuautepec",-98.963713,16.7185387,16535
12,26,"Cuetzala del Progreso",-99.8147013,18.124764,8962
12,27,"Cutzamala de Pinzón",-100.6179164,18.6598161,20443
12,28,"Chilapa de Álvarez",-99.1123596,17.5236913,132499
12,29,"Chilpancingo de los Bravo",-99.6974474,17.3908335,281967
12,30,"Florencio Villarreal",-99.1342199,16.6929317,21463
12,31,"General Canuto A. Neri",-100.1041749,18.4411261,5962
12,32,"General Heliodoro Castillo",-100.0269355,17.7338012,37836
12,33,"Huamuxtitlán",-98.5470916,17.8121633,15704
12,34,"Huitzuco de los Figueroa",-99.2534218,18.2297737,38607
12,35,"Iguala de la Independencia",-99.5821198,18.2268076,157224
12,36,"Igualapa",-98.4932845,16.8017383,11596
12,37,"Ixcateopan de Cuauhtémoc",-99.7655919,18.4634498,6447
12,38,"Zihuatanejo de Azueta",-101.4341839,17.8200956,130139
12,39,"Juan R. Escudero",-99.4729251,17.1421331,25682
12,40,"Leonardo Bravo",-99.7957939,17.6319355,26765
12,41,"Malinaltepec",-98.7046101,17.1460591,28320
12,42,"Mártir de Cuilapan",-99.3575716,17.8324992,19156
12,43,"Metlatónoc",-98.4397451,17.1340262,19348
12,44,"Mochitlán",-99.3705979,17.3368414,13091
12,45,"Olinalá",-98.7838934,17.8965606,26271
12,46,"Ometepec",-98.3528162,16.6615645,69373
12,47,"Pedro Ascencio Alquisiras",-99.8692192,18.5446642,7063
12,48,"Petatlán",-101.1603314,17.620096,45488
12,49,"Pilcaya",-99.60783,18.7042323,13189
12,50,"Pungarabato",-100.6114725,18.3456244,38857
12,51,"Quechultenango",-99.1852169,17.3128229,36891
12,52,"San Luis Acatlán",-98.7510769,16.8763577,45064
12,53,"San Marcos",-99.4090391,16.8086945,50745
12,54,"San Miguel Totolapan",-100.3182452,17.8398102,28346
12,55,"Taxco de Alarcón",-99.5974402,18.5200408,112237
12,56,"Tecoanapa",-99.2948867,16.9804547,47511
12,57,"Técpan de Galeana",-100.7443642,17.4059441,66699
12,58,"Teloloapan",-99.9140748,18.3582616,58837
12,59,"Tepecoacuilco de Trujano",-99.4693937,18.1009988,32736
12,60,"Tetipac",-99.6717606,18.6488415,14815
12,61,"Tixtla de Guerrero",-99.3674676,17.5993501,44234
12,62,"Tlacoachistlahuaca",-98.2771272,16.9390612,23986
12,63,"Tlacoapa",-98.7861513,17.2300143,10350
12,64,"Tlalchapa",-100.4350264,18.4280221,12643
12,65,"Tlalixtaquilla de Maldonado",-98.4091951,17.571652,7587
12,66,"Tlapa de Comonfort",-98.6155447,17.5621738,92632
12,67,"Tlapehuala",-100.4533307,18.2802852,22707
12,68,"La Unión de Isidoro Montes de Oca",-101.8549511,18.0166592,26972
12,69,"Xalpatláhuac",-98.5414888,17.4298094,12268
12,70,"Xochihuehuetlán",-98.5092979,17.9045102,7399
12,71,"Xochistlahuaca",-98.1572688,16.8694269,30086
12,72,"Zapotitlán Tablas",-98.8295231,17.3245459,12310
12,73,"Zirándaro",-101.2182267,18.3449268,18388
12,74,"Zitlala",-99.1851085,17.7495844,23729
12,75,"Eduardo Neri",-99.6097748,17.8014917,52519
12,76,"Acatepec",-98.9760335,17.1748164,38608
12,77,"Marquelia",-98.7450198,16.6391792,14205
12,78,"Cochoapa el Grande",-98.4238704,17.1005744,19333
12,79,"José Joaquín de Herrera",-98.9959401,17.4426345,17816
12,80,"Juchitán",-98.6776352,16.5939788,7879
12,81,"Iliatenco",-98.6378771,17.0471031,11289
13,1,"Acatlán",-98.440348,20.2064236,21956
13,2,"Acaxochitlán",-98.1984039,20.1598495,45753
13,3,"Actopan",-98.8896914,20.3145468,60673
13,4,"Agua Blanca de Iturbide",-98.3693756,20.3615666,9640
13,5,"Ajacuba",-99.0780282,20.1198265,19662
13,6,"Alfajayucan",-99.4054038,20.4070936,21790
13,7,"Almoloya",-98.3270747,19.7416223,13009
13,8,"Apan",-98.4470011,19.7229046,47595
13,9,"El Arenal",-98.8825755,20.2171461,19950
13,10,"Atitalaquia",-99.2213749,20.0547456,31829
13,11,"Atlapexco",-98.3635528,21.0273101,21483
13,12,"Atotonilco el Grande",-98.676488,20.3548399,29197
13,13,"Atotonilco de Tula",-99.2313764,19.9734455,40374
13,14,"Calnali",-98.5484908,20.9060559,18514
13,15,"Cardonal",-99.0601956,20.5991687,19658
13,16,"Cuautepec de Hinojosa",-98.2816682,19.9843084,61641
13,17,"Chapantongo",-99.4716475,20.2636858,14480
13,18,"Chapulhuacán",-98.9496715,21.1284377,25223
13,19,"Chilcuautla",-99.2551311,20.3243195,19425
13,20,"Eloxochitlán",-98.8803347,20.7414085,2942
13,21,"Emiliano Zapata",-98.6002725,19.6592969,15622
13,22,"Epazoyucan",-98.6439346,20.0321444,15830
13,23,"Francisco I. Madero",-99.0802849,20.2352793,38420
13,24,"Huasca de Ocampo",-98.5431256,20.2259071,18890
13,25,"Huautla",-98.247144,21.0382562,23115
13,26,"Huazalingo",-98.4891349,20.9974955,14839
13,27,"Huehuetla",-98.0640868,20.5141586,27080
13,28,"Huejutla de Reyes",-98.4517162,21.1272351,138485
13,29,"Huichapan",-99.6807343,20.3838171,49295
13,30,"Ixmiquilpan",-99.2013232,20.5325151,98587
13,31,"Jacala de Ledezma",-99.1472186,20.9699576,14334
13,32,"Jaltocán",-98.5275725,21.1484788,12668
13,33,"Juárez Hidalgo",-98.8357478,20.8315813,3383
13,34,"Lolotla",-98.7233096,20.9621542,10213
13,35,"Metepec",-98.3429226,20.2578141,12397
13,36,"San Agustín Metzquititlán",-98.6052853,20.5237933,10236
13,37,"Metztitlán",-98.8096529,20.5654466,22059
13,38,"Mineral del Chico",-98.7535602,20.2230418,9514
13,39,"Mineral del Monte",-98.6588319,20.1403554,15557
13,40,"La Misión",-99.070512,21.0709629,10860
13,41,"Mixquiahuala de Juárez",-99.1807262,20.2238534,49320
13,42,"Molango de Escamilla",-98.776416,20.8643884,12406
13,43,"Nicolás Flores",-99.1754127,20.7864735,7331
13,44,"Nopala de Villagrán",-99.672684,20.2329885,17952
13,45,"Omitlán de Juárez",-98.6219647,20.1737455,10416
13,46,"San Felipe Orizatlán",-98.5816752,21.260334,41568
13,47,"Pacula",-99.3154127,20.9997632,5325
13,48,"Pachuca de Soto",-98.7822305,20.102084,278974
13,49,"Pisaflores",-98.988833,21.2344882,18743
13,50,"Progreso de Obregón",-99.1781549,20.3143329,25092
13,51,"Mineral de la Reforma",-98.7201732,20.0586587,181119
13,52,"San Agustín Tlaxiaca",-98.9400356,20.0955748,38570
13,53,"San Bartolo Tutotepec",-98.1910524,20.4685162,19952
13,54,"San Salvador",-99.0478611,20.3047487,37561
13,55,"Santiago de Anaya",-98.9828534,20.4123706,18169
13,56,"Santiago Tulantepec de Lugo Guerrero",-98.3927766,20.035651,39602
13,57,"Singuilucan",-98.4954609,19.9876032,17171
13,58,"Tasquillo",-99.3758309,20.5423397,17526
13,59,"Tecozautla",-99.6324319,20.5392633,40065
13,60,"Tenango de Doria",-98.2108329,20.3433581,19480
13,61,"Tepeapulco",-98.4947853,19.8155397,58261
13,62,"Tepehuacán de Guerrero",-98.8329433,21.0614303,32541
13,63,"Tepeji del Río de Ocampo",-99.3635011,19.9026668,92621
13,64,"Tepetitlán",-99.3987044,20.1942204,11647
13,65,"Tetepango",-99.1518264,20.114407,12415
13,66,"Villa de Tezontepec",-98.8033645,19.9128225,13301
13,67,"Tezontepec de Aldama",-99.293281,20.1788696,56275
13,68,"Tianguistengo",-98.5441854,20.7787854,15899
13,69,"Tizayuca",-98.9611842,19.8525267,133825
13,70,"Tlahuelilpan",-99.2190689,20.1315537,20476
13,71,"Tlahuiltepa",-98.9723893,20.866593,10841
13,72,"Tlanalapa",-98.586932,19.8351992,11063
13,73,"Tlanchinol",-98.6481825,21.0318349,41753
13,74,"Tlaxcoapan",-99.2309915,20.0962042,30431
13,75,"Tolcayuca",-98.923352,19.9549559,17431
13,76,"Tula de Allende",-99.3767425,20.0641292,117558
13,77,"Tulancingo de Bravo",-98.3509397,20.1236012,167638
13,78,"Xochiatipan",-98.2880896,20.8578571,21068
13,79,"Xochicoatlán",-98.6395789,20.794904,8207
13,80,"Yahualica",-98.3835171,20.9162499,25913
13,81,"Zacualtipán de Ángeles",-98.586726,20.6507474,37118
13,82,"Zapotlán de Juárez",-98.8553022,19.9926055,20215
13,83,"Zempoala",-98.6723341,19.9231304,49467
13,84,"Zimapán",-99.3657267,20.7528788,42236
14,1,"Acatic",-102.9091588,20.7700527,22840
14,2,"Acatlán de Juárez",-103.6088457,20.4284935,24060
14,3,"Ahualulco de Mercado",-103.9353619,20.7114665,24601
14,4,"Amacueca",-103.6225835,19.9999465,5802
14,5,"Amatitán",-103.7172519,20.8499898,16304
14,6,"Ameca",-104.0805433,20.5416639,64360
14,7,"San Juanito de Escobedo",-104.0067784,20.8091029,9878
14,8,"Arandas",-102.3006184,20.7664374,80318
14,9,"El Arenal",-103.6790141,20.7549726,20751
14,10,"Atemajac de Brizuela",-103.7316537,20.1729524,7109
14,11,"Atengo",-104.2739249,20.3180755,5861
14,12,"Atenguillo",-104.5506741,20.3367341,4235
14,13,"Atotonilco el Alto",-102.5396146,20.5475661,64115
14,14,"Atoyac",-103.4704691,19.9964392,8682
14,15,"Autlán de Navarro",-104.3121564,19.7434664,64857
14,16,"Ayotlán",-102.3429278,20.488821,40429
14,17,"Ayutla",-104.4348227,20.0502574,13294
14,18,"La Barca",-102.5232997,20.3638271,69406
14,19,"Bolaños",-103.9204759,21.8746537,8048
14,20,"Cabo Corrientes",-105.4065665,20.3424033,10995
14,21,"Casimiro Castillo",-104.4701611,19.6029487,23010
14,22,"Cihuatlán",-104.6149475,19.2773771,43556
14,23,"Zapotlán el Grande",-103.5103369,19.7107737,112912
14,24,"Cocula",-103.8244592,20.3903532,28371
14,25,"Colotlán",-103.2872011,22.0917096,19153
14,26,"Concepción de Buenos Aires",-103.236428,19.9824152,6497
14,27,"Cuautitlán de García Barragán",-104.311053,19.4356317,19013
14,28,"Cuautla",-104.5098565,20.1929964,2281
14,29,"Cuquío",-103.0287168,20.9524023,19191
14,30,"Chapala",-103.1879112,20.2598603,54263
14,31,"Chimaltitán",-103.6599475,21.7299194,3585
14,32,"Chiquilistlán",-103.8801849,20.082284,6413
14,33,"Degollado",-102.1677902,20.4478918,22663
14,34,"Ejutla",-104.0816221,19.9124151,2047
14,35,"Encarnación de Díaz",-102.1914798,21.5557052,56739
14,36,"Etzatlán",-104.123768,20.7436069,20974
14,37,"El Grullo",-104.1951248,19.8010557,26088
14,38,"Guachinango",-104.4215643,20.6789061,4500
14,39,"Guadalajara",-103.3357483,20.6762189,1500273
14,40,"Hostotipaquillo",-104.0754075,21.0574643,10875
14,41,"Huejúcar",-103.2339852,22.3185503,6139
14,42,"Huejuquilla el Alto",-103.9162128,22.5837001,9357
14,43,"La Huerta",-104.8630896,19.5147274,25795
14,44,"Ixtlahuacán de los Membrillos",-103.2073764,20.3916422,58498
14,45,"Ixtlahuacán del Río",-103.2278117,20.8985609,20249
14,46,"Jalostotitlán",-102.4893397,21.1916662,35713
14,47,"Jamay",-102.6856745,20.2801308,26211
14,48,"Jesús María",-102.1198652,20.6354677,20253
14,49,"Jilotlán de los Dolores",-102.8810925,19.3295189,10115
14,50,"Jocotepec",-103.4171813,20.3145114,48846
14,51,"Juanacatlán",-103.1352113,20.4817197,18882
14,52,"Juchitlán",-104.0366571,20.0542424,5975
14,53,"Lagos de Moreno",-101.8796566,21.4940127,173943
14,54,"El Limón",-104.1003184,19.8407934,5853
14,55,"Magdalena",-104.0307698,20.9082522,23871
14,56,"Santa María del Oro",-102.8386562,19.5291947,2243
14,57,"La Manzanilla de la Paz",-103.1078372,20.0215115,4005
14,58,"Mascota",-104.81406,20.5789459,15482
14,59,"Mazamitla",-103.072534,19.8942391,14783
14,60,"Mexticacán",-102.7535341,21.2638532,5503
14,61,"Mezquitic",-103.9944275,22.2224412,20490
14,62,"Mixtlán",-104.452918,20.5089128,3745
14,63,"Ocotlán",-102.7240506,20.3974415,105174
14,64,"Ojuelos de Jalisco",-101.7151166,21.8108302,33770
14,65,"Pihuamo",-103.3818619,19.1465503,11975
14,66,"Poncitlán",-102.8947191,20.2702154,54667
14,67,"Puerto Vallarta",-105.1491456,20.6978594,295799
14,68,"Villa Purificación",-104.7228426,19.8071902,11610
14,69,"Quitupan",-102.8682414,19.8045381,8772
14,70,"El Salto",-103.2454573,20.5390253,196448
14,71,"San Cristóbal de la Barranca",-103.5001484,21.0478791,3161
14,72,"San Diego de Alejandría",-102.023458,20.9701219,7626
14,73,"San Juan de los Lagos",-102.2943526,21.269696,73419
14,74,"San Julián",-102.1634755,20.9976613,16824
14,75,"San Marcos",-104.2320496,20.8246889,4026
14,76,"San Martín de Bolaños",-103.7850122,21.595893,3267
14,77,"San Martín Hidalgo",-103.9051365,20.4499206,29214
14,78,"San Miguel el Alto",-102.3796422,20.9925945,34721
14,79,"Gómez Farías",-103.4171853,19.8564567,15218
14,80,"San Sebastián del Oeste",-104.8261233,20.852453,5933
14,81,"Santa María de los Ángeles",-103.181281,22.1933069,3407
14,82,"Sayula",-103.5946439,19.861762,39072
14,83,"Tala",-103.6821936,20.6074203,84261
14,84,"Talpa de Allende",-104.9534806,20.2994441,15900
14,85,"Tamazula de Gordiano",-103.1792876,19.6874747,40820
14,86,"Tapalpa",-103.7654714,19.9482387,20444
14,87,"Tecalitlán",-103.192531,19.2252978,17624
14,88,"Tecolotlán",-104.0241829,20.2592238,18293
14,89,"Techaluta de Montenegro",-103.5752624,20.0924322,3946
14,90,"Tenamaxtlán",-104.1655294,20.1468882,7466
14,91,"Teocaltiche",-102.5544777,21.4803576,43795
14,92,"Teocuitatlán de Corona",-103.3471464,20.1087123,11102
14,93,"Tepatitlán de Morelos",-102.7208429,20.8148423,149983
14,94,"Tequila",-103.7809619,21.1124607,44483
14,95,"Teuchitlán",-103.8323882,20.6792585,10202
14,96,"Tizapán el Alto",-103.0710725,20.119622,22348
14,97,"Tlajomulco de Zúñiga",-103.4173673,20.478696,626468
14,98,"San Pedro Tlaquepaque",-103.3478552,20.5914814,701444
14,99,"Tolimán",-103.9305674,19.5528898,10810
14,100,"Tomatlán",-105.1647453,19.9795246,37655
14,101,"Tonalá",-103.2143447,20.6200531,570774
14,102,"Tonaya",-103.9501799,19.8478987,6355
14,103,"Tonila",-103.5350894,19.4321015,8340
14,104,"Totatiche",-103.4785742,21.9589105,4654
14,105,"Tototlán",-102.7487185,20.5487281,24430
14,106,"Tuxcacuesco",-104.0331604,19.6812219,4577
14,107,"Tuxcueca",-103.2420362,20.146898,6630
14,108,"Tuxpan",-103.4572644,19.4790298,36912
14,109,"Unión de San Antonio",-101.9971832,21.154678,19037
14,110,"Unión de Tula",-104.2557182,19.9928693,14363
14,111,"Valle de Guadalupe",-102.6509561,21.0465152,7412
14,112,"Valle de Juárez",-102.9726177,19.8351739,5869
14,113,"San Gabriel",-103.7389065,19.7099114,17158
14,114,"Villa Corona",-103.7088569,20.3896459,18912
14,115,"Villa Guerrero",-103.6866622,22.0287809,5837
14,116,"Villa Hidalgo",-102.5935932,21.6677159,21545
14,117,"Cañadas de Obregón",-102.7012285,21.1598226,4403
14,118,"Yahualica de González Gallo",-102.9336608,21.1379365,23877
14,119,"Zacoalco de Torres",-103.5680598,20.2355178,30161
14,120,"Zapopan",-103.49421,20.7949043,1419678
14,121,"Zapotiltic",-103.3457808,19.6216055,31097
14,122,"Zapotitlán de Vadillo",-103.7583372,19.5155728,7412
14,123,"Zapotlán del Rey",-102.924974,20.4608637,19170
14,124,"Zapotlanejo",-103.0488368,20.6360476,71737
14,125,"San Ignacio Cerro Gordo",-102.5064047,20.7646075,20013
15,1,"Acambay de Ruíz Castañeda",-99.8715303,19.9729417,68870
15,2,"Acolman",-98.9198621,19.6337737,181951
15,3,"Aculco",-99.8333466,20.1156765,51572
15,4,"Almoloya de Alquisiras",-99.8667955,18.8329589,15587
15,5,"Almoloya de Juárez",-99.8294058,19.4054144,185061
15,6,"Almoloya del Río",-99.491873,19.1587798,12016
15,7,"Amanalco",-99.9883932,19.2509315,25614
15,8,"Amatepec",-100.2668015,18.7029925,28274
15,9,"Amecameca",-98.7165633,19.1248871,54144
15,10,"Apaxco",-99.1478989,19.9845089,31254
15,11,"Atenco",-98.9621322,19.5454314,68776
15,12,"Atizapán",-99.4999752,19.1755456,12342
15,13,"Atizapán de Zaragoza",-99.274044,19.5648073,553345
15,14,"Atlacomulco",-99.8458163,19.8098529,106065
15,15,"Atlautla",-98.7170647,19.0311081,32292
15,16,"Axapusco",-98.7212963,19.7630572,29621
15,17,"Ayapango",-98.8163559,19.1242909,10873
15,18,"Calimaya",-99.6432579,19.1655345,59285
15,19,"Capulhuac",-99.4605509,19.2098261,37834
15,20,"Coacalco de Berriozábal",-99.1023955,19.62629,309175
15,21,"Coatepec Harinas",-99.7993663,18.9455352,41289
15,22,"Cocotitlán",-98.8588949,19.2260296,15180
15,23,"Coyotepec",-99.2222053,19.7899845,43921
15,24,"Cuautitlán",-99.159452,19.7082139,171933
15,25,"Chalco",-98.8316862,19.2535972,388478
15,26,"Chapa de Mota",-99.5509391,19.8257554,29972
15,27,"Chapultepec",-99.5501089,19.2064925,12701
15,28,"Chiautla",-98.8838727,19.5730292,31304
15,29,"Chicoloapan",-98.877573,19.4062946,222653
15,30,"Chiconcuac",-98.8966957,19.5562785,27156
15,31,"Chimalhuacán",-98.9472081,19.4162737,713167
15,32,"Donato Guerra",-100.1848436,19.316442,35855
15,33,"Ecatepec de Morelos",-99.0432118,19.5727837,1699737
15,34,"Ecatzingo",-98.7366496,18.968022,10007
15,35,"Huehuetoca",-99.2550282,19.8226326,143509
15,36,"Hueypoxtla",-99.0280078,19.9524123,46191
15,37,"Huixquilucan",-99.3395276,19.3831008,286581
15,38,"Isidro Fabela",-99.4403761,19.5542433,12340
15,39,"Ixtapaluca",-98.7790553,19.3428019,544086
15,40,"Ixtapan de la Sal",-99.6908411,18.8506966,37857
15,41,"Ixtapan del Oro",-100.2778499,19.2574264,7221
15,42,"Ixtlahuaca",-99.8070304,19.5895959,161396
15,43,"Xalatlaco",-99.3592706,19.1652452,31603
15,44,"Jaltenco",-99.0889302,19.7387167,29127
15,45,"Jilotepec",-99.5965693,20.0191029,93752
15,46,"Jilotzingo",-99.390437,19.5060472,20473
15,47,"Jiquipilco",-99.6416176,19.5860846,78304
15,48,"Jocotitlán",-99.8236068,19.7171921,69668
15,49,"Joquicingo",-99.5144815,19.067567,14546
15,50,"Juchitepec",-98.9040824,19.0935939,26924
15,51,"Lerma",-99.4748623,19.3450835,157467
15,52,"Malinalco",-99.4856425,18.881918,29173
15,53,"Melchor Ocampo",-99.1335478,19.7096506,60139
15,54,"Metepec",-99.5882635,19.2473915,243918
15,55,"Mexicaltzingo",-99.5831303,19.2110866,13563
15,56,"Morelos",-99.6417582,19.7434726,31546
15,57,"Naucalpan de Juárez",-99.2926054,19.4712531,903960
15,58,"Nezahualcóyotl",-99.0226995,19.4225787,1131976
15,59,"Nextlalpan",-99.0745237,19.7299382,42740
15,60,"Nicolás Romero",-99.3917498,19.624973,434523
15,61,"Nopaltepec",-98.7170891,19.8123143,9668
15,62,"Ocoyoacac",-99.4062825,19.2595152,70816
15,63,"Ocuilan",-99.3964163,19.0092341,36165
15,64,"El Oro",-100.0791527,19.7951461,39136
15,65,"Otumba",-98.7383926,19.6560195,37787
15,66,"Otzoloapan",-100.3189472,19.1080301,4268
15,67,"Otzolotepec",-99.529938,19.4502414,89638
15,68,"Ozumba",-98.8096843,19.0217561,30810
15,69,"Papalotla",-98.8578596,19.5598819,4340
15,70,"La Paz",-98.9466909,19.361073,305912
15,71,"Polotitlán",-99.8316784,20.2240779,14885
15,72,"Rayón",-99.5670743,19.1388778,14407
15,73,"San Antonio la Isla",-99.5512837,19.1688771,30878
15,74,"San Felipe del Progreso",-99.9825228,19.6532248,139067
15,75,"San Martín de las Pirámides",-98.8321949,19.7197711,28771
15,76,"San Mateo Atenco",-99.5422523,19.2689542,80208
15,77,"San Simón de Guerrero",-100.0368717,18.9800548,6507
15,78,"Santo Tomás",-100.2998129,19.179688,10177
15,79,"Soyaniquilpan de Juárez",-99.5138744,20.0518053,14131
15,80,"Sultepec",-99.9892034,18.734621,28025
15,81,"Tecámac",-98.9865079,19.7058364,489070
15,82,"Tejupilco",-100.2130913,18.8737972,79555
15,83,"Temamatla",-98.8837773,19.1889327,13519
15,84,"Temascalapa",-98.8810687,19.8191207,41236
15,85,"Temascalcingo",-100.0369993,19.9212647,66883
15,86,"Temascaltepec",-99.9965843,19.0813614,34110
15,87,"Temoaya",-99.6023182,19.4857304,107918
15,88,"Tenancingo",-99.5692203,18.9670199,104005
15,89,"Tenango del Aire",-98.8701506,19.1516372,13134
15,90,"Tenango del Valle",-99.6302862,19.0813502,90911
15,91,"Teoloyucan",-99.1681848,19.7622074,69562
15,92,"Teotihuacán",-98.8706692,19.6863179,60341
15,93,"Tepetlaoxtoc",-98.7657006,19.5694144,32699
15,94,"Tepetlixpa",-98.8412839,19.0099403,20923
15,95,"Tepotzotlán",-99.3061937,19.7252131,102761
15,96,"Tequixquiac",-99.1495851,19.9046488,39200
15,97,"Texcaltitlán",-99.9407388,18.940007,19940
15,98,"Texcalyacac",-99.5064291,19.129644,5649
15,99,"Texcoco",-98.8276917,19.4716766,259545
15,100,"Tezoyuca",-98.9314108,19.5969162,45541
15,101,"Tianguistenco",-99.4321638,19.1623002,81524
15,102,"Timilpan",-99.7180416,19.8963458,16685
15,103,"Tlalmanalco",-98.7319697,19.2089023,50956
15,104,"Tlalnepantla de Baz",-99.1701464,19.5427453,750224
15,105,"Tlatlaya",-100.2570832,18.5444826,37194
15,106,"Toluca",-99.6669965,19.2962633,937994
15,107,"Tonatico",-99.6375594,18.7809037,13408
15,108,"Tultepec",-99.1196488,19.6793066,158680
15,109,"Tultitlán",-99.1452884,19.6262095,552728
15,110,"Valle de Bravo",-100.1219503,19.1777678,69600
15,111,"Villa de Allende",-100.1375637,19.387243,54275
15,112,"Villa del Carbón",-99.4783937,19.7210622,50075
15,113,"Villa Guerrero",-99.6872899,18.9730872,70746
15,114,"Villa Victoria",-99.9921343,19.4427503,108905
15,115,"Xonacatlán",-99.4675987,19.4369511,54038
15,116,"Zacazonapan",-100.2561103,19.0608296,4341
15,117,"Zacualpan",-99.812811,18.7158202,15957
15,118,"Zinacantepec",-99.7978222,19.2150198,198889
15,119,"Zumpahuacán",-99.5540893,18.8001174,17856
15,120,"Zumpango",-99.0718206,19.8091068,212874
15,121,"Cuautitlán Izcalli",-99.2252266,19.6545365,572744
15,122,"Valle de Chalco Solidaridad",-98.948317,19.2764065,415167
15,123,"Luvianos",-100.4064827,18.9408184,29592
15,124,"San José del Rincón",-100.1456082,19.6171287,98231
15,125,"Tonanitla",-99.0583586,19.6818248,10883
16,1,"Acuitzio",-101.3400023,19.4658308,11937
16,2,"Aguililla",-102.7610872,18.7777421,15429
16,3,"Álvaro Obregón",-101.0217579,19.8735369,22722
16,4,"Angamacutiro",-101.7277624,20.1389061,15711
16,5,"Angangueo",-100.2985271,19.6292291,11687
16,6,"Apatzingán",-102.4233222,18.9381731,133398
16,7,"Aporo",-100.3954263,19.6619818,3404
16,8,"Aquila",-103.2358367,18.3742379,25934
16,9,"Ario",-101.7066721,19.1563123,38341
16,10,"Arteaga",-102.2706818,18.36407,22772
16,11,"Briseñas",-102.5897953,20.2375432,11856
16,12,"Buenavista",-102.5838682,19.2038757,48969
16,13,"Carácuaro",-101.0363143,18.9688278,9647
16,14,"Coahuayana",-103.6153802,18.7428093,15038
16,15,"Coalcomán de Vázquez Pallares",-103.0859668,18.679653,18502
16,16,"Coeneo",-101.6272501,19.7952939,21600
16,17,"Contepec",-100.2075883,19.9593078,35685
16,18,"Copándaro",-101.2214031,19.9162796,9443
16,19,"Cotija",-102.6999617,19.7590841,19675
16,20,"Cuitzeo",-101.1118238,19.9805926,31096
16,21,"Charapan",-102.2279705,19.6924184,12922
16,22,"Charo",-101.0133079,19.6689141,23137
16,23,"Chavinda",-102.4467065,20.0440264,10716
16,24,"Cherán",-101.9897389,19.7346188,19862
16,25,"Chilchota",-102.1011676,19.8133526,40725
16,26,"Chinicuila",-103.4089379,18.7638964,5053
16,27,"Chucándiro",-101.3621913,19.8969503,4620
16,28,"Churintzio",-102.0780297,20.1288931,5326
16,29,"Churumuco",-101.6162319,18.689244,15811
16,30,"Ecuandureo",-102.2434175,20.1555579,13146
16,31,"Epitacio Huerta",-100.2893416,20.1473422,17439
16,32,"Erongarícuaro",-101.7252138,19.619788,15983
16,33,"Gabriel Zamora",-102.0071373,19.158817,23707
16,34,"Hidalgo",-100.6778972,19.6126034,128369
16,35,"La Huacana",-101.9211609,18.8419592,35408
16,36,"Huandacareo",-101.2777668,19.9961304,12401
16,37,"Huaniqueo",-101.4964781,19.8919507,8357
16,38,"Huetamo",-101.1050639,18.6538709,42599
16,39,"Huiramba",-101.4570616,19.5215421,9167
16,40,"Indaparapeo",-100.9421581,19.7660221,17521
16,41,"Irimbo",-100.4679996,19.7168001,15797
16,42,"Ixtlán",-102.4057192,20.1513625,13495
16,43,"Jacona",-102.3160019,19.9349414,72232
16,44,"Jiménez",-101.7043921,19.9268311,13291
16,45,"Jiquilpan",-102.7534091,19.9774978,34641
16,46,"Juárez",-100.4601793,19.2928217,15151
16,47,"Jungapeo",-100.5186892,19.4333371,22236
16,48,"Lagunillas",-101.4111949,19.5779989,5823
16,49,"Madero",-101.1702182,19.3424683,18665
16,50,"Maravatío",-100.4289524,19.8894386,91755
16,51,"Marcos Castellanos",-102.9678339,20.0448234,14382
16,52,"Lázaro Cárdenas",-102.375113,18.0885396,191454
16,53,"Morelia",-101.2791066,19.6665935,819361
16,54,"Morelos",-101.4429956,19.9898311,7898
16,55,"Múgica",-102.1238049,18.9710986,47624
16,56,"Nahuatzen",-101.8795512,19.6451768,29692
16,57,"Nocupétaro",-101.2159329,19.0934884,8464
16,58,"Nuevo Parangaricutiro",-102.1957284,19.4082366,20663
16,59,"Nuevo Urecho",-101.8636818,19.1591156,8450
16,60,"Numarán",-101.9597534,20.2506763,10241
16,61,"Ocampo",-100.3327655,19.5771793,25273
16,62,"Pajacuarán",-102.5257373,20.1451574,20268
16,63,"Panindícuaro",-101.7816513,20.0017448,16473
16,64,"Parácuaro",-102.212291,19.0620596,27802
16,65,"Paracho",-102.071052,19.6541266,39018
16,66,"Pátzcuaro",-101.5990154,19.4944966,97411
16,67,"Penjamillo",-101.8956067,20.1038381,17671
16,68,"Peribán",-102.4526098,19.4952891,29062
16,69,"La Piedad",-102.0723113,20.3055829,109512
16,70,"Purépero",-101.9920137,19.9107189,16074
16,71,"Puruándiro",-101.5280324,20.1157103,70203
16,72,"Queréndaro",-100.8467716,19.726477,14300
16,73,"Quiroga",-101.5386656,19.6951755,28880
16,74,"Cojumatlán de Régules",-102.8792274,20.1119487,10864
16,75,"Los Reyes",-102.3953396,19.6528404,72415
16,76,"Sahuayo",-102.7662973,20.0551405,80614
16,77,"San Lucas",-100.7628778,18.5672589,18869
16,78,"Santa Ana Maya",-101.0388857,20.0392512,13065
16,79,"Salvador Escalante",-101.6880828,19.3812139,51180
16,80,"Senguio",-100.3423317,19.7461768,19839
16,81,"Susupuato",-100.4068674,19.1912038,9119
16,82,"Tacámbaro",-101.4520159,19.2548354,80212
16,83,"Tancítaro",-102.3470143,19.3311439,32468
16,84,"Tangamandapio",-102.4536454,19.8902469,30727
16,85,"Tangancícuaro",-102.2486829,19.8725991,35080
16,86,"Tanhuato",-102.3417835,20.259245,16207
16,87,"Taretan",-101.8951056,19.3293096,15334
16,88,"Tarímbaro",-101.1575038,19.8164857,116249
16,89,"Tepalcatepec",-102.8583291,19.0682345,24790
16,90,"Tingambato",-101.8506528,19.5138879,15747
16,91,"Tingüindín",-102.5004183,19.7867329,15203
16,92,"Tiquicheo de Nicolás Romero",-100.7953751,19.0571823,14099
16,93,"Tlalpujahua",-100.2065826,19.7798868,30129
16,94,"Tlazazalca",-102.0608773,20.0059186,6633
16,95,"Tocumbo",-102.5936982,19.6463974,12484
16,96,"Tumbiscatío",-102.5100321,18.550255,7091
16,97,"Turicato",-101.4221165,18.932076,32616
16,98,"Tuxpan",-100.4878778,19.5683319,28356
16,99,"Tuzantla",-100.6179474,19.2218018,15988
16,100,"Tzintzuntzan",-101.5495268,19.6099502,15020
16,101,"Tzitzio",-100.914012,19.4316205,9072
16,102,"Uruapan",-102.1056451,19.4436371,351823
16,103,"Venustiano Carranza",-102.6662002,20.1430619,25849
16,104,"Villamar",-102.586401,19.9937616,17420
16,105,"Vista Hermosa",-102.4698262,20.2662219,21478
16,106,"Yurécuaro",-102.2195139,20.2992678,32863
16,107,"Zacapu",-101.8278668,19.8241373,79432
16,108,"Zamora",-102.2640704,20.0329818,206438
16,109,"Zináparo",-102.0115465,20.1824842,3326
16,110,"Zinapécuaro",-100.769286,19.8707145,49267
16,111,"Ziracuaretiro",-101.9090443,19.4285265,18056
16,112,"Zitácuaro",-100.3379489,19.4382253,170853
16,113,"José Sixto Verduzco",-101.5669324,20.2569173,27325
17,1,"Amacuzac",-99.386685,18.5900005,18698
17,2,"Atlatlahucan",-98.8945011,18.9350498,23732
17,3,"Axochiapan",-98.752114,18.525239,37829
17,4,"Ayala",-98.9789702,18.7162179,90046
17,5,"Coatlán del Río",-99.4457771,18.7318301,10363
17,6,"Cuautla",-98.9618045,18.8270598,205737
17,7,"Cuernavaca",-99.2630277,18.9388781,396418
17,8,"Emiliano Zapata",-99.1808978,18.8137262,104829
17,9,"Huitzilac",-99.2366267,19.0575928,20134
17,10,"Jantetelco",-98.7647112,18.6854054,18132
17,11,"Jiutepec",-99.166451,18.8851584,225720
17,12,"Jojutla",-99.222543,18.5845546,60840
17,13,"Jonacatepec de Leandro Valle",-98.8094142,18.6637572,16572
17,14,"Mazatepec",-99.3654166,18.6859154,10591
17,15,"Miacatlán",-99.3551781,18.8029574,28005
17,16,"Ocuituco",-98.7809609,18.8815721,19456
17,17,"Puente de Ixtla",-99.2856748,18.5777934,70168
17,18,"Temixco",-99.2722426,18.842531,122613
17,19,"Tepalcingo",-98.8942524,18.5747753,28584
17,20,"Tepoztlán",-99.1051886,18.9812958,50517
17,21,"Tetecala",-99.4123941,18.6927356,8238
17,22,"Tetela del Volcán",-98.7082035,18.9055342,21762
17,23,"Tlalnepantla",-98.9902399,19.0387057,7621
17,24,"Tlaltizapán de Zapata",-99.1082461,18.7049525,55013
17,25,"Tlaquiltenango",-99.0747291,18.4991324,35774
17,26,"Tlayacapan",-98.975033,18.9540275,18906
17,27,"Totolapan",-98.9180321,19.0004355,12654
17,28,"Xochitepec",-99.2352761,18.7618978,73694
17,29,"Yautepec",-99.0523534,18.8722353,108820
17,30,"Yecapixtla",-98.8568123,18.8526976,55521
17,31,"Zacatepec",-99.2027141,18.6556541,38789
17,32,"Zacualpan de Amilpas",-98.7537982,18.8068762,10064
17,33,"Temoac",-98.790494,18.7592414,16728
18,1,"Acaponeta",-105.2589573,22.4648377,40069
18,2,"Ahuacatlán",-104.5763435,21.0411125,17036
18,3,"Amatlán de Cañas",-104.4014509,20.8484713,12590
18,4,"Compostela",-105.0567476,21.1313712,80913
18,5,"Huajicori",-105.2442176,22.788539,13374
18,6,"Ixtlán del Río",-104.3069559,21.0334282,31405
18,7,"Jala",-104.3993208,21.1840734,19809
18,8,"Xalisco",-104.9617614,21.3908621,61076
18,9,"Del Nayar",-104.6571087,22.1290707,44611
18,10,"Rosamorada",-105.2145406,22.1177087,36782
18,11,"Ruíz",-104.9625618,21.9911049,26601
18,12,"San Blas",-105.487077,21.5674715,47458
18,13,"San Pedro Lagunillas",-104.7487972,21.1610745,8148
18,14,"Santa María del Oro",-104.590333,21.3564852,25275
18,15,"Santiago Ixcuintla",-105.32218,21.85403,104788
18,16,"Tecuala",-105.5194529,22.3370182,42659
18,17,"Tepic",-104.8404865,21.62159,439916
18,18,"Tuxpan",-105.3744234,21.9615585,33016
18,19,"La Yesca",-104.1508925,21.5428156,14866
18,20,"Bahía de Banderas",-105.271095,20.8463549,170254
19,1,"Abasolo",-100.4059424,25.9405434,2911
19,2,"Agualeguas",-99.7030828,26.2987121,2627
19,3,"Los Aldamas",-99.2734802,26.0915061,1485
19,4,"Allende",-100.0295183,25.3014341,37797
19,5,"Anáhuac",-100.0253546,27.342154,19844
19,6,"Apodaca",-100.187331,25.7922758,654249
19,7,"Aramberri",-99.8865089,24.2251177,17586
19,8,"Bustamante",-100.5617925,26.5717111,4330
19,9,"Cadereyta Jiménez",-99.9141855,25.5245905,103732
19,10,"El Carmen",-100.3568846,25.9007711,45792
19,11,"Cerralvo",-99.7053645,26.0723193,8312
19,12,"Ciénega de Flores",-100.1854355,25.9774585,49098
19,13,"China",-98.9724092,25.4801588,11856
19,14,"Doctor Arroyo",-100.3062665,23.8601084,37512
19,15,"Doctor Coss",-99.0308734,25.9640911,1822
19,16,"Doctor González",-99.80498,25.849252,3278
19,17,"Galeana",-100.3922872,24.760509,44543
19,18,"García",-100.6597769,25.8090106,290911
19,19,"San Pedro Garza García",-100.3747577,25.6445975,136480
19,20,"General Bravo",-98.8484181,25.8033148,6059
19,21,"General Escobedo",-100.3555678,25.8219686,459071
19,22,"General Terán",-99.4130166,25.275874,16112
19,23,"General Treviño",-99.4459672,26.2126484,1196
19,24,"General Zaragoza",-99.7401735,23.901029,6546
19,25,"General Zuazua",-100.1348197,25.9113922,88975
19,26,"Guadalupe",-100.2057778,25.6726512,706231
19,27,"Los Herreras",-99.4142398,25.916079,1986
19,28,"Higueras",-99.997508,26.0331681,1700
19,29,"Hualahuises",-99.6780961,24.8837909,7661
19,30,"Iturbide",-99.8487156,24.6384177,3937
19,31,"Juárez",-100.1214799,25.6140901,385877
19,32,"Lampazos de Naranjo",-100.4182159,27.0508414,5719
19,33,"Linares",-99.5292195,24.8517706,87683
19,34,"Marín",-99.9646183,25.874518,6150
19,35,"Melchor Ocampo",-99.4934835,26.0489152,1057
19,36,"Mier y Noriega",-100.160408,23.4179166,7554
19,37,"Mina",-100.7862767,26.2855836,5846
19,38,"Montemorelos",-99.8083805,25.1263054,66834
19,39,"Monterrey",-100.3110151,25.6448319,1115043
19,40,"Parás",-99.6015541,26.5830424,1080
19,41,"Pesquería",-99.9771347,25.7367687,108796
19,42,"Los Ramones",-99.587667,25.65331,5203
19,43,"Rayones",-100.1277326,25.0658234,2942
19,44,"Sabinas Hidalgo",-100.1492883,26.5751023,38710
19,45,"Salinas Victoria",-100.2703853,26.1610522,60377
19,46,"San Nicolás de los Garza",-100.2706914,25.7360564,473285
19,47,"Hidalgo",-100.4531901,25.9994023,15875
19,48,"Santa Catarina",-100.4838634,25.5746103,318594
19,49,"Santiago",-100.2373229,25.3848972,46435
19,50,"Vallecillo",-99.8847627,26.648106,1921
19,51,"Villaldama",-100.3480695,26.4697046,4527
20,1,"Abejones",-96.633838,17.4901507,1045
20,2,"Acatlán de Pérez Figueroa",-96.5395654,18.4521529,47444
20,3,"Asunción Cacalotepec",-95.9269104,17.0338302,2186
20,4,"Asunción Cuyotepeji",-97.6527086,17.9294956,1023
20,5,"Asunción Ixtaltepec",-94.9564524,16.6619794,15771
20,6,"Asunción Nochixtlán",-97.1677854,17.448019,19477
20,7,"Asunción Ocotlán",-96.7257572,16.7628901,2532
20,8,"Asunción Tlacolulita",-95.766197,16.2261197,803
20,9,"Ayotzintepec",-96.1668011,17.7146408,7403
20,10,"El Barrio de la Soledad",-95.0430365,16.7882769,14842
20,11,"Calihualá",-98.2538555,17.5457342,1194
20,12,"Candelaria Loxicha",-96.5277697,15.8977653,10755
20,13,"Ciénega de Zimatlán",-96.7663707,16.8937842,3073
20,14,"Ciudad Ixtepec",-95.0893348,16.6233882,30084
20,15,"Coatecas Altas",-96.6358123,16.5140521,4778
20,16,"Coicoyán de las Flores",-98.2171786,17.2160208,10243
20,17,"La Compañía",-96.8514574,16.5798,3400
20,18,"Concepción Buenavista",-97.4428034,17.9903015,825
20,19,"Concepción Pápalo",-96.853921,17.8676903,3070
20,20,"Constancia del Rosario",-98.0104936,17.0614608,4076
20,21,"Cosolapa",-96.6618794,18.5798718,16190
20,22,"Cosoltepec",-97.8016738,18.1380368,793
20,23,"Cuilápam de Guerrero",-96.8014269,17.006961,22432
20,24,"Cuyamecalco Villa de Zaragoza",-96.8573083,17.96613,3802
20,25,"Chahuites",-94.2046453,16.2738954,11952
20,26,"Chalcatongo de Hidalgo",-97.5623279,16.9868333,9347
20,27,"Chiquihuitlán de Benito Juárez",-96.7487422,17.9924701,2411
20,28,"Heroica Ciudad de Ejutla de Crespo",-96.7313923,16.5965816,21697
20,29,"Eloxochitlán de Flores Magón",-96.8692734,18.1946471,4418
20,30,"El Espinal",-95.0395359,16.4671716,9072
20,31,"Tamazulápam del Espíritu Santo",-96.0221589,17.0372641,7635
20,32,"Fresnillo de Trujano",-98.1291685,17.9298802,1050
20,33,"Guadalupe Etla",-96.8020791,17.1771648,2796
20,34,"Guadalupe de Ramírez",-98.1642973,17.7544498,1321
20,35,"Guelatao de Juárez",-96.4991139,17.3146793,573
20,36,"Guevea de Humboldt",-95.3893934,16.8387688,5483
20,37,"Mesones Hidalgo",-98.0099236,16.922331,4531
20,38,"Villa Hidalgo",-96.1601836,17.1811669,2024
20,39,"Heroica Ciudad de Huajuapan de León",-97.7998495,17.8551472,80390
20,40,"Huautepec",-96.7839292,18.0726621,6443
20,41,"Huautla de Jiménez",-96.7999782,18.144585,32458
20,42,"Ixtlán de Juárez",-96.3393529,17.4946366,8474
20,43,"Heroica Ciudad de Juchitán de Zaragoza",-94.9310928,16.3816032,102582
20,44,"Loma Bonita",-95.8910437,18.0008322,44371
20,45,"Magdalena Apasco",-96.8152358,17.2471532,9148
20,46,"Magdalena Jaltepec",-97.242062,17.2611561,3313
20,47,"Santa Magdalena Jicotlán",-97.4817899,17.8066069,95
20,48,"Magdalena Mixtepec",-96.9087523,16.8963448,1393
20,49,"Magdalena Ocotlán",-96.714973,16.7085939,1204
20,50,"Magdalena Peñasco",-97.5538841,17.2404586,3645
20,51,"Magdalena Teitipac",-96.5574895,16.8901666,4760
20,52,"Magdalena Tequisistlán",-95.6553111,16.3477716,6338
20,53,"Magdalena Tlacotepec",-95.2526711,16.5108379,1293
20,54,"Magdalena Zahuatlán",-97.2249145,17.3904391,427
20,55,"Mariscala de Juárez",-98.123654,17.8275253,3659
20,56,"Mártires de Tacubaya",-98.2368039,16.5421234,1480
20,57,"Matías Romero Avendaño",-94.9909691,17.1556037,40640
20,58,"Mazatlán Villa de Flores",-96.9109482,18.0293649,13513
20,59,"Miahuatlán de Porfirio Díaz",-96.6460752,16.3483843,45228
20,60,"Mixistlán de la Reforma",-96.1040508,17.1653871,2711
20,61,"Monjas",-96.6309763,16.3731597,2811
20,62,"Natividad",-96.4262512,17.3017337,617
20,63,"Nazareno Etla",-96.8293515,17.1811795,4208
20,64,"Nejapa de Madero",-95.7941589,16.6686923,7705
20,65,"Ixpantepec Nieves",-98.0143558,17.50416,1191
20,66,"Santiago Niltepec",-94.5880695,16.5198191,5555
20,67,"Oaxaca de Juárez",-96.7241201,17.1021053,258636
20,68,"Ocotlán de Morelos",-96.7033976,16.761794,22809
20,69,"La Pe",-96.7938856,16.6235032,2722
20,70,"Pinotepa de Don Luis",-97.9660698,16.4036802,7177
20,71,"Pluma Hidalgo",-96.427886,15.9193744,3001
20,72,"San José del Progreso",-96.665069,16.6720816,7042
20,73,"Putla Villa de Guerrero",-97.8936147,16.9983136,34325
20,74,"Santa Catarina Quioquitani",-96.2702552,16.3091815,550
20,75,"Reforma de Pineda",-94.4458095,16.3925259,2878
20,76,"La Reforma",-97.8633708,16.6476487,3323
20,77,"Reyes Etla",-96.8190675,17.2099418,4042
20,78,"Rojas de Cuauhtémoc",-96.6361508,17.002411,1156
20,79,"Salina Cruz",-95.2195757,16.1933894,92037
20,80,"San Agustín Amatengo",-96.813797,16.5137879,1471
20,81,"San Agustín Atenango",-97.993414,17.5891712,1807
20,82,"San Agustín Chayuco",-97.8046768,16.4497065,4114
20,83,"San Agustín de las Juntas",-96.6855933,16.9919714,9999
20,84,"San Agustín Etla",-96.7182607,17.2012607,4240
20,85,"San Agustín Loxicha",-96.6208192,15.9761764,25470
20,86,"San Agustín Tlacotepec",-97.5157409,17.1982694,971
20,87,"San Agustín Yatareni",-96.6794604,17.0806958,4565
20,88,"San Andrés Cabecera Nueva",-97.7920804,16.8474361,2860
20,89,"San Andrés Dinicuiti",-97.6887415,17.6985302,2202
20,90,"San Andrés Huaxpaltepec",-97.9175082,16.3447832,6358
20,91,"San Andrés Huayápam",-96.6672925,17.1274623,5615
20,92,"San Andrés Ixtlahuaca",-96.8649156,17.0587764,1649
20,93,"San Andrés Lagunas",-97.5293378,17.5894669,505
20,94,"San Andrés Nuxiño",-97.06316,17.2339607,1823
20,95,"San Andrés Paxtlán",-96.5249538,16.2116932,4476
20,96,"San Andrés Sinaxtla",-97.2961082,17.4846865,773
20,97,"San Andrés Solaga",-96.2232992,17.2767729,1771
20,98,"San Andrés Teotilálpam",-96.59952,17.9447594,4583
20,99,"San Andrés Tepetlapa",-98.3864292,17.6593653,519
20,100,"San Andrés Yaá",-96.1323881,17.2903124,458
20,101,"San Andrés Zabache",-96.860629,16.6010523,734
20,102,"San Andrés Zautla",-96.902976,17.1842011,4789
20,103,"San Antonino Castillo Velasco",-96.6925403,16.8139372,6270
20,104,"San Antonino el Alto",-97.0450384,16.834057,2760
20,105,"San Antonino Monte Verde",-97.7439689,17.5184819,7420
20,106,"San Antonio Acutla",-97.4955969,17.7428889,266
20,107,"San Antonio de la Cal",-96.6918185,17.0241122,25306
20,108,"San Antonio Huitepec",-97.142964,16.9205928,4545
20,109,"San Antonio Nanahuatípam",-97.1645119,18.1461512,1278
20,110,"San Antonio Sinicahua",-97.5736586,17.1531588,1626
20,111,"San Antonio Tepetlapa",-98.0478293,16.5406989,4442
20,112,"San Baltazar Chichicápam",-96.5073677,16.7663342,2605
20,113,"San Baltazar Loxicha",-96.7961848,16.036006,3063
20,114,"San Baltazar Yatzachi el Bajo",-96.21061,17.2204101,675
20,115,"San Bartolo Coyotepec",-96.6956151,16.9411423,10063
20,116,"San Bartolomé Ayautla",-96.675522,18.0500786,4632
20,117,"San Bartolomé Loxicha",-96.7548159,15.943846,2434
20,118,"San Bartolomé Quialana",-96.5000621,16.8967267,2544
20,119,"San Bartolomé Yucuañe",-97.4525822,17.2239812,391
20,120,"San Bartolomé Zoogocho",-96.2432411,17.2452804,321
20,121,"San Bartolo Soyaltepec",-97.3141558,17.5844238,671
20,122,"San Bartolo Yautepec",-95.928032,16.4255045,676
20,123,"San Bernardo Mixtepec",-96.9171811,16.8444172,2781
20,124,"San Blas Atempa",-95.1461761,16.3578938,18894
20,125,"San Carlos Yautepec",-95.9622329,16.4146832,12471
20,126,"San Cristóbal Amatlán",-96.3830078,16.3073189,5373
20,127,"San Cristóbal Amoltepec",-97.581082,17.2823782,1156
20,128,"San Cristóbal Lachirioag",-96.1749495,17.351438,1289
20,129,"San Cristóbal Suchixtlahuaca",-97.3836188,17.7254211,373
20,130,"San Dionisio del Mar",-94.7404831,16.337566,5364
20,131,"San Dionisio Ocotepec",-96.3020645,16.7809182,11071
20,132,"San Dionisio Ocotlán",-96.6641757,16.7499074,1198
20,133,"San Esteban Atatlahuca",-97.6919824,17.0769345,3882
20,134,"San Felipe Jalapa de Díaz",-96.5351011,18.0696455,28948
20,135,"San Felipe Tejalápam",-96.8852348,17.0928979,8109
20,136,"San Felipe Usila",-96.5070959,17.8202906,12018
20,137,"San Francisco Cahuacuá",-97.3676774,16.858084,3498
20,138,"San Francisco Cajonos",-96.2646462,17.1808617,443
20,139,"San Francisco Chapulapa",-96.7452023,17.905571,2136
20,140,"San Francisco Chindúa",-97.3143581,17.4170104,838
20,141,"San Francisco del Mar",-94.4704097,16.2327186,8031
20,142,"San Francisco Huehuetlán",-96.9361842,18.1952361,1110
20,143,"San Francisco Ixhuatán",-94.5130762,16.352692,9289
20,144,"San Francisco Jaltepetongo",-97.275077,17.3464929,1018
20,145,"San Francisco Lachigoló",-96.5958152,17.0263457,4461
20,146,"San Francisco Logueche",-96.3801277,16.3734251,2994
20,147,"San Francisco Nuxaño",-97.3340294,17.3633298,387
20,148,"San Francisco Ozolotepec",-96.2019497,16.093358,1971
20,149,"San Francisco Sola",-96.9058489,16.5141606,1757
20,150,"San Francisco Telixtlahuaca",-96.9281231,17.3721116,13362
20,151,"San Francisco Teopan",-97.5435317,17.8904131,345
20,152,"San Francisco Tlapancingo",-98.2633285,17.4763674,2338
20,153,"San Gabriel Mixtepec",-97.0452598,16.0506245,5048
20,154,"San Ildefonso Amatlán",-96.4537433,16.2893893,2550
20,155,"San Ildefonso Sola",-96.9560354,16.5919346,1003
20,156,"San Ildefonso Villa Alta",-96.1370021,17.373846,3524
20,157,"San Jacinto Amilpas",-96.7574313,17.0953684,18034
20,158,"San Jacinto Tlacotepec",-97.3659583,16.5032731,2265
20,159,"San Jerónimo Coatlán",-96.9696434,16.2044479,5501
20,160,"San Jerónimo Silacayoapilla",-97.8688717,17.8067279,1426
20,161,"San Jerónimo Sosola",-97.0357788,17.3905465,2674
20,162,"San Jerónimo Taviche",-96.571393,16.7040547,1991
20,163,"San Jerónimo Tecóatl",-96.9290325,18.1537982,1660
20,164,"San Jorge Nuchita",-98.0915758,17.6891434,2944
20,165,"San José Ayuquila",-97.972178,17.9544198,1583
20,166,"San José Chiltepec",-96.1236507,17.9146822,12473
20,167,"San José del Peñasco",-96.4932905,16.2805826,2194
20,168,"San José Estancia Grande",-98.2563233,16.3778399,1083
20,169,"San José Independencia",-96.6424897,18.2576294,3836
20,170,"San José Lachiguiri",-96.3349668,16.4015712,3618
20,171,"San José Tenango",-96.6680437,18.1608454,18938
20,172,"San Juan Achiutla",-97.5005516,17.3500084,415
20,173,"San Juan Atepec",-96.4883686,17.4641131,1532
20,174,"Ánimas Trujano",-96.7162034,16.9873187,4169
20,175,"San Juan Bautista Atatlahuca",-96.768566,17.5889049,1651
20,176,"San Juan Bautista Coixtlahuaca",-97.2624117,17.7206101,2763
20,177,"San Juan Bautista Cuicatlán",-96.9690221,17.7411679,10286
20,178,"San Juan Bautista Guelache",-96.7591545,17.2379887,7728
20,179,"San Juan Bautista Jayacatlán",-96.8074794,17.4391825,1533
20,180,"San Juan Bautista Lo de Soto",-98.3437931,16.5148741,2628
20,181,"San Juan Bautista Suchitepec",-97.6432784,18.0000078,452
20,182,"San Juan Bautista Tlacoatzintepec",-96.5924163,17.8730081,2256
20,183,"San Juan Bautista Tlachichilco",-98.3222234,17.5907115,1441
20,184,"San Juan Bautista Tuxtepec",-96.092538,18.0285589,169708
20,185,"San Juan Cacahuatepec",-98.163422,16.6417198,9213
20,186,"San Juan Cieneguilla",-98.2707185,17.8654063,590
20,187,"San Juan Coatzóspam",-96.7286653,18.0583392,2190
20,188,"San Juan Colorado",-97.9106704,16.4951517,10271
20,189,"San Juan Comaltepec",-95.9565556,17.3289901,2914
20,190,"San Juan Cotzocón",-95.4967753,17.3183451,24415
20,191,"San Juan Chicomezúchil",-96.5073396,17.2792222,344
20,192,"San Juan Chilateca",-96.671655,16.8282586,1576
20,193,"San Juan del Estado",-96.7792472,17.3294448,2747
20,194,"San Juan del Río",-96.1613486,16.8917768,1311
20,195,"San Juan Diuxi",-97.3896524,17.2777825,1120
20,196,"San Juan Evangelista Analco",-96.5393227,17.4009073,429
20,197,"San Juan Guelavía",-96.5415252,16.953907,3385
20,198,"San Juan Guichicovi",-95.1121669,17.0540695,30652
20,199,"San Juan Ihualtepec",-98.29025,17.7643491,643
20,200,"San Juan Juquila Mixes",-95.8910361,16.8746597,3954
20,201,"San Juan Juquila Vijanos",-96.3017272,17.3240118,2012
20,202,"San Juan Lachao",-97.1169682,16.2092868,4939
20,203,"San Juan Lachigalla",-96.545777,16.5684309,3423
20,204,"San Juan Lajarcia",-95.9179085,16.5114178,672
20,205,"San Juan Lalana",-95.7913065,17.4932958,17572
20,206,"San Juan de los Cués",-97.039239,18.044337,2495
20,207,"San Juan Mazatlán",-95.4207718,17.1320283,19130
20,208,"San Juan Mixtepec",-97.8558819,17.3376953,7132
20,209,"San Juan Mixtepec",-96.3131781,16.2466877,707
20,210,"San Juan Ñumí",-97.7548899,17.4261411,6165
20,211,"San Juan Ozolotepec",-96.208804,16.1068561,2799
20,212,"San Juan Petlapa",-96.0477265,17.4899272,3030
20,213,"San Juan Quiahije",-97.3548336,16.3420851,4157
20,214,"San Juan Quiotepec",-96.6262494,17.662726,2141
20,215,"San Juan Sayultepec",-97.2917885,17.4482983,833
20,216,"San Juan Tabaá",-96.2185092,17.3186136,1371
20,217,"San Juan Tamazola",-97.1710227,17.1164056,3091
20,218,"San Juan Teita",-97.4300197,17.0774139,625
20,219,"San Juan Teitipac",-96.5977399,16.8945376,2699
20,220,"San Juan Tepeuxila",-96.7624854,17.7396644,2754
20,221,"San Juan Teposcolula",-97.4157578,17.5872584,1297
20,222,"San Juan Yaeé",-96.2799529,17.4419877,1559
20,223,"San Juan Yatzona",-96.18215,17.4105133,487
20,224,"San Juan Yucuita",-97.2689829,17.5234302,617
20,225,"San Lorenzo",-97.877859,16.4112312,6332
20,226,"San Lorenzo Albarradas",-96.2384843,16.8910219,2859
20,227,"San Lorenzo Cacaotepec",-96.803562,17.129044,16421
20,228,"San Lorenzo Cuaunecuiltitla",-96.9172768,18.2163485,836
20,229,"San Lorenzo Texmelúcan",-97.1864667,16.5268692,8442
20,230,"San Lorenzo Victoria",-98.1238334,17.6318992,1004
20,231,"San Lucas Camotlán",-95.6897705,16.9378106,3128
20,232,"San Lucas Ojitlán",-96.362521,18.0342359,21087
20,233,"San Lucas Quiaviní",-96.4535024,16.8792971,1789
20,234,"San Lucas Zoquiápam",-96.9158917,18.1123441,7689
20,235,"San Luis Amatlán",-96.4789307,16.4532658,3764
20,236,"San Marcial Ozolotepec",-96.4039949,16.0405777,1556
20,237,"San Marcos Arteaga",-97.903798,17.7375064,1435
20,238,"San Martín de los Cansecos",-96.726068,16.6560544,880
20,239,"San Martín Huamelúlpam",-97.6089563,17.3962957,1086
20,240,"San Martín Itunyoso",-97.8557804,17.2173585,2342
20,241,"San Martín Lachilá",-96.854182,16.6163788,1115
20,242,"San Martín Peras",-98.2450338,17.3616927,12529
20,243,"San Martín Tilcajete",-96.6919218,16.875747,1874
20,244,"San Martín Toxpalan",-97.0309038,18.107397,3958
20,245,"San Martín Zacatepec",-98.0709531,17.816547,1317
20,246,"San Mateo Cajonos",-96.1969672,17.1529738,646
20,247,"Capulálpam de Méndez",-96.4208821,17.3180461,1608
20,248,"San Mateo del Mar",-95.0456078,16.209298,15629
20,249,"San Mateo Yoloxochitlán",-96.8689532,18.1411849,3739
20,250,"San Mateo Etlatongo",-97.2629099,17.4225884,1180
20,251,"San Mateo Nejápam",-98.4213892,17.646894,1180
20,252,"San Mateo Peñasco",-97.494783,17.1449924,2201
20,253,"San Mateo Piñas",-96.3387851,15.9717288,1994
20,254,"San Mateo Río Hondo",-96.525227,16.1213111,3242
20,255,"San Mateo Sindihui",-97.3711076,17.0039522,2103
20,256,"San Mateo Tlapiltepec",-97.429514,17.8050517,234
20,257,"San Melchor Betaza",-96.1507624,17.2458912,1060
20,258,"San Miguel Achiutla",-97.4735243,17.3066149,768
20,259,"San Miguel Ahuehuetitlán",-98.3321284,17.6828903,2472
20,260,"San Miguel Aloápam",-96.7042714,17.4338986,2305
20,261,"San Miguel Amatitlán",-98.0194413,17.8867212,7740
20,262,"San Miguel Amatlán",-96.4564103,17.2001532,1021
20,263,"San Miguel Coatlán",-96.6801404,16.1666255,3409
20,264,"San Miguel Chicahua",-97.198221,17.6268055,2214
20,265,"San Miguel Chimalapa",-94.4098568,16.6525304,7087
20,266,"San Miguel del Puerto",-96.0962258,15.9451799,8589
20,267,"San Miguel del Río",-96.5743873,17.3274725,271
20,268,"San Miguel Ejutla",-96.7366058,16.5961905,1026
20,269,"San Miguel el Grande",-97.6158717,17.0785511,4341
20,270,"San Miguel Huautla",-97.146181,17.7544393,1166
20,271,"San Miguel Mixtepec",-96.9478641,16.7575506,3309
20,272,"San Miguel Panixtlahuaca",-97.4004946,16.2386563,6783
20,273,"San Miguel Peras",-97.0120751,16.9285676,3455
20,274,"San Miguel Piedras",-97.2163582,16.9810576,1334
20,275,"San Miguel Quetzaltepec",-95.7802214,16.9756715,8406
20,276,"San Miguel Santa Flor",-96.7976815,17.9198706,732
20,277,"Villa Sola de Vega",-97.0581796,16.5132112,12702
20,278,"San Miguel Soyaltepec",-96.4390677,18.2525151,40305
20,279,"San Miguel Suchixtepec",-96.4584274,16.0801684,2833
20,280,"Villa Talea de Castro",-96.2318372,17.3673932,2368
20,281,"San Miguel Tecomatlán",-97.2910516,17.378864,313
20,282,"San Miguel Tenango",-95.5478223,16.2319337,751
20,283,"San Miguel Tequixtepec",-97.3148805,17.824188,1049
20,284,"San Miguel Tilquiápam",-96.5643608,16.7756346,3226
20,285,"San Miguel Tlacamama",-98.1082745,16.4404617,3757
20,286,"San Miguel Tlacotepec",-98.0107002,17.4422577,3263
20,287,"San Miguel Tulancingo",-97.4460098,17.7536862,316
20,288,"San Miguel Yotao",-96.3534073,17.3481137,624
20,289,"San Nicolás",-96.744656,16.4309561,1181
20,290,"San Nicolás Hidalgo",-98.1326162,17.7762961,1036
20,291,"San Pablo Coatlán",-96.7900142,16.1702621,4353
20,292,"San Pablo Cuatro Venados",-96.8902307,16.982048,1441
20,293,"San Pablo Etla",-96.7337457,17.1636608,18919
20,294,"San Pablo Huitzo",-96.8735961,17.309749,7359
20,295,"San Pablo Huixtepec",-96.8066049,16.8180104,9725
20,296,"San Pablo Macuiltianguis",-96.5216191,17.5217074,922
20,297,"San Pablo Tijaltepec",-97.4712851,17.0075437,2479
20,298,"San Pablo Villa de Mitla",-96.2948943,16.9687982,13103
20,299,"San Pablo Yaganiza",-96.2171609,17.1250877,1111
20,300,"San Pedro Amuzgos",-98.0836705,16.6774892,6941
20,301,"San Pedro Apóstol",-96.7340313,16.741265,1587
20,302,"San Pedro Atoyac",-97.9694631,16.5188078,4569
20,303,"San Pedro Cajonos",-96.2620575,17.163444,1139
20,304,"San Pedro Coxcaltepec Cántaros",-97.1098271,17.5211707,778
20,305,"San Pedro Comitancillo",-95.1665446,16.4636224,4405
20,306,"San Pedro el Alto",-96.471691,16.0158199,3813
20,307,"San Pedro Huamelula",-95.7823006,15.9742214,10235
20,308,"San Pedro Huilotepec",-95.1475225,16.2428595,3246
20,309,"San Pedro Ixcatlán",-96.5514536,18.159143,11763
20,310,"San Pedro Ixtlahuaca",-96.8269509,17.0526972,9161
20,311,"San Pedro Jaltepetongo",-97.0265787,17.6867629,561
20,312,"San Pedro Jicayán",-98.0421026,16.4695014,12661
20,313,"San Pedro Jocotipac",-97.0714968,17.7592533,807
20,314,"San Pedro Juchatengo",-97.1090707,16.3191642,1667
20,315,"San Pedro Mártir",-96.704253,16.7483098,1734
20,316,"San Pedro Mártir Quiechapa",-96.2535917,16.4421584,729
20,317,"San Pedro Mártir Yucuxaco",-97.6438099,17.4500895,1304
20,318,"San Pedro Mixtepec",-97.0695776,15.9496457,50614
20,319,"San Pedro Mixtepec",-96.2095783,16.2187852,1111
20,320,"San Pedro Molinos",-97.5518362,17.1039164,706
20,321,"San Pedro Nopala",-97.5768634,17.8105012,757
20,322,"San Pedro Ocopetatillo",-96.9112868,18.1833643,850
20,323,"San Pedro Ocotepec",-95.8407876,16.9717733,2202
20,324,"San Pedro Pochutla",-96.4128656,15.7892143,49020
20,325,"San Pedro Quiatoni",-96.0344478,16.7672676,11289
20,326,"San Pedro Sochiápam",-96.6408999,17.8195203,5230
20,327,"San Pedro Tapanatepec",-94.2152955,16.2807992,15335
20,328,"San Pedro Taviche",-96.5339677,16.6439096,1246
20,329,"San Pedro Teozacoalco",-97.2748038,16.9957058,1280
20,330,"San Pedro Teutila",-96.6286717,17.9902772,4414
20,331,"San Pedro Tidaá",-97.3913042,17.3373488,920
20,332,"San Pedro Topiltepec",-97.3574355,17.4552458,375
20,333,"San Pedro Totolápam",-96.2292132,16.662842,2727
20,334,"Villa de Tututepec",-97.5374771,16.0776823,47121
20,335,"San Pedro Yaneri",-96.380672,17.4231278,961
20,336,"San Pedro Yólox",-96.47947,17.6333863,1852
20,337,"San Pedro y San Pablo Ayutla",-96.1349826,17.0217421,5392
20,338,"Villa de Etla",-96.7931753,17.1951557,11291
20,339,"San Pedro y San Pablo Teposcolula",-97.506412,17.5078745,4261
20,340,"San Pedro y San Pablo Tequixtepec",-97.7062944,18.0884858,1774
20,341,"San Pedro Yucunama",-97.4808519,17.5772262,241
20,342,"San Raymundo Jalpan",-96.7547453,16.982003,3635
20,343,"San Sebastián Abasolo",-96.603316,16.9846828,1974
20,344,"San Sebastián Coatlán",-96.8712538,16.0885096,2787
20,345,"San Sebastián Ixcapa",-98.1495432,16.525934,4187
20,346,"San Sebastián Nicananduta",-97.674386,17.5199566,1499
20,347,"San Sebastián Río Hondo",-96.4233823,16.2050816,3764
20,348,"San Sebastián Tecomaxtlahuaca",-98.0936361,17.3452356,8489
20,349,"San Sebastián Teitipac",-96.6334243,16.9517726,2033
20,350,"San Sebastián Tutla",-96.6797073,17.0453046,19306
20,351,"San Simón Almolongas",-96.7265206,16.4019028,2838
20,352,"San Simón Zahuatlán",-97.9981422,17.8353641,4323
20,353,"Santa Ana",-96.730285,16.3342698,2243
20,354,"Santa Ana Ateixtlahuaca",-96.8884722,18.2247455,533
20,355,"Santa Ana Cuauhtémoc",-96.8011561,17.9897761,744
20,356,"Santa Ana del Valle",-96.4653977,17.0115159,2141
20,357,"Santa Ana Tavela",-95.8838056,16.6042525,839
20,358,"Santa Ana Tlapacoyan",-96.8615597,16.7430839,2032
20,359,"Santa Ana Yareni",-96.6221456,17.3962218,924
20,360,"Santa Ana Zegache",-96.7319296,16.8364006,3887
20,361,"Santa Catalina Quierí",-96.2417457,16.3296077,939
20,362,"Santa Catarina Cuixtla",-96.648214,16.2949161,1498
20,363,"Santa Catarina Ixtepeji",-96.5770857,17.213799,2712
20,364,"Santa Catarina Juquila",-97.2961909,16.1773399,16263
20,365,"Santa Catarina Lachatao",-96.4984609,17.1805099,1141
20,366,"Santa Catarina Loxicha",-96.7187737,16.0709558,3982
20,367,"Santa Catarina Mechoacán",-97.8391316,16.3397105,4669
20,368,"Santa Catarina Minas",-96.6126888,16.7914701,2003
20,369,"Santa Catarina Quiané",-96.7320775,16.8833502,1995
20,370,"Santa Catarina Tayata",-97.5514184,17.334691,677
20,371,"Santa Catarina Ticuá",-97.5343522,17.0618494,1084
20,372,"Santa Catarina Yosonotú",-97.6726529,17.0078237,1740
20,373,"Santa Catarina Zapoquila",-97.5566326,18.0207502,385
20,374,"Santa Cruz Acatepec",-96.8830472,18.1575017,1613
20,375,"Santa Cruz Amilpas",-96.6850939,17.0485936,13469
20,376,"Santa Cruz de Bravo",-98.2153351,17.570551,373
20,377,"Santa Cruz Itundujia",-97.6813595,16.7282129,11899
20,378,"Santa Cruz Mixtepec",-96.9053395,16.7899972,3633
20,379,"Santa Cruz Nundaco",-97.7183164,17.1548957,3047
20,380,"Santa Cruz Papalutla",-96.5838304,16.9525053,2218
20,381,"Santa Cruz Tacache de Mina",-98.1643765,17.8214369,2772
20,382,"Santa Cruz Tacahua",-97.4623576,16.918131,1155
20,383,"Santa Cruz Tayata",-97.5679482,17.3767029,621
20,384,"Santa Cruz Xitla",-96.6781399,16.3373098,4932
20,385,"Santa Cruz Xoxocotlán",-96.7485952,17.0190212,97622
20,386,"Santa Cruz Zenzontepec",-97.4847813,16.4693481,18963
20,387,"Santa Gertrudis",-96.7931816,16.7817182,2942
20,388,"Santa Inés del Monte",-96.8546325,16.9217436,2482
20,389,"Santa Inés Yatzeche",-96.758942,16.805821,947
20,390,"Santa Lucía del Camino",-96.6911115,17.0649753,51999
20,391,"Santa Lucía Miahuatlán",-96.6206598,16.1808223,3527
20,392,"Santa Lucía Monteverde",-97.7321456,16.943195,6670
20,393,"Santa Lucía Ocotlán",-96.6686622,16.7246807,3975
20,394,"Santa María Alotepec",-95.8465175,17.0791776,2887
20,395,"Santa María Apazco",-97.0802058,17.6247092,1780
20,396,"Santa María la Asunción",-96.8172629,18.103353,3376
20,397,"Heroica Ciudad de Tlaxiaco",-97.6913923,17.2313887,42327
20,398,"Ayoquezco de Aldama",-96.8920839,16.6774584,4444
20,399,"Santa María Atzompa",-96.7864466,17.0882029,36581
20,400,"Santa María Camotlán",-97.6499547,17.8696191,1668
20,401,"Santa María Colotepec",-96.9221542,15.8619893,24980
20,402,"Santa María Cortijo",-98.3127056,16.4289267,1101
20,403,"Santa María Coyotepec",-96.7102022,16.9706226,3217
20,404,"Santa María Chachoápam",-97.260649,17.5657637,768
20,405,"Villa de Chilapa de Díaz",-97.6380132,17.593836,2189
20,406,"Santa María Chilchotla",-96.7462024,18.2930693,21037
20,407,"Santa María Chimalapa",-94.3885958,16.946917,9347
20,408,"Santa María del Rosario",-97.6051209,17.343686,511
20,409,"Santa María del Tule",-96.6342975,17.0292408,9356
20,410,"Santa María Ecatepec",-95.8650578,16.2333628,3510
20,411,"Santa María Guelacé",-96.6127778,16.9928354,851
20,412,"Santa María Guienagati",-95.3519482,16.7366697,3273
20,413,"Santa María Huatulco",-96.2232568,15.7962544,46394
20,414,"Santa María Huazolotitlán",-97.926371,16.2087643,11782
20,415,"Santa María Ipalapa",-97.9983223,16.6148839,5116
20,416,"Santa María Ixcatlán",-97.1584152,17.8504162,509
20,417,"Santa María Jacatepec",-96.1315755,17.8498523,9627
20,418,"Santa María Jalapa del Marqués",-95.4742342,16.5158152,13509
20,419,"Santa María Jaltianguis",-96.5417348,17.3627378,540
20,420,"Santa María Lachixío",-97.0409285,16.737571,1981
20,421,"Santa María Mixtequilla",-95.2754685,16.4246939,4811
20,422,"Santa María Nativitas",-97.332413,17.6462867,619
20,423,"Santa María Nduayaco",-97.5013625,17.4077128,508
20,424,"Santa María Ozolotepec",-96.3492699,16.0991212,3981
20,425,"Santa María Pápalo",-96.7837796,17.8072937,2202
20,426,"Santa María Peñoles",-97.0334298,17.0484409,8727
20,427,"Santa María Petapa",-95.0719761,16.8846204,17013
20,428,"Santa María Quiegolani",-96.0519036,16.3045482,1978
20,429,"Santa María Sola",-97.0299248,16.5609342,1520
20,430,"Santa María Tataltepec",-97.3952637,17.1375201,378
20,431,"Santa María Tecomavaca",-97.0989573,17.9535615,1746
20,432,"Santa María Temaxcalapa",-96.1580989,17.3789968,961
20,433,"Santa María Temaxcaltepec",-97.181025,16.1647791,2691
20,434,"Santa María Teopoxco",-96.9715895,18.1742035,4430
20,435,"Santa María Tepantlali",-95.9891168,16.9513067,3860
20,436,"Santa María Texcatitlán",-97.0504942,17.7223695,1028
20,437,"Santa María Tlahuitoltepec",-96.0536763,17.1142849,9612
20,438,"Santa María Tlalixtac",-96.7371222,17.9213734,1754
20,439,"Santa María Tonameca",-96.6818363,15.7728902,26202
20,440,"Santa María Totolapilla",-95.6152658,16.6229255,859
20,441,"Santa María Xadani",-95.0263396,16.363463,9039
20,442,"Santa María Yalina",-96.2962949,17.2710738,291
20,443,"Santa María Yavesía",-96.4113586,17.2011805,502
20,444,"Santa María Yolotepec",-97.460309,16.8822142,428
20,445,"Santa María Yosoyúa",-97.5000011,17.1074409,1686
20,446,"Santa María Yucuhiti",-97.803279,17.0351159,6467
20,447,"Santa María Zacatepec",-97.9737424,16.778719,16443
20,448,"Santa María Zaniza",-97.3591035,16.6427648,2280
20,449,"Santa María Zoquitlán",-96.370405,16.5590437,3127
20,450,"Santiago Amoltepec",-97.5208447,16.6315582,13050
20,451,"Santiago Apoala",-97.1361929,17.6496872,925
20,452,"Santiago Apóstol",-96.7273177,16.7961922,4112
20,453,"Santiago Astata",-95.6121405,15.9775667,4088
20,454,"Santiago Atitlán",-95.9216943,17.0962642,3134
20,455,"Santiago Ayuquililla",-97.974325,17.9195042,2780
20,456,"Santiago Cacaloxtepec",-97.7344468,17.7311019,1665
20,457,"Santiago Camotlán",-96.1664577,17.527492,3275
20,458,"Santiago Comaltepec",-96.3946378,17.6159244,1007
20,459,"Santiago Chazumba",-97.7193872,18.1998556,4604
20,460,"Santiago Choápam",-95.9160747,17.3764318,5326
20,461,"Santiago del Río",-98.1013845,17.4308393,556
20,462,"Santiago Huajolotitlán",-97.6891109,17.8034537,4307
20,463,"Santiago Huauclilla",-97.0469748,17.4862559,546
20,464,"Santiago Ihuitlán Plumas",-97.4483036,17.8810931,375
20,465,"Santiago Ixcuintepec",-95.5820681,16.9277095,1672
20,466,"Santiago Ixtayutla",-97.6983248,16.5381837,13256
20,467,"Santiago Jamiltepec",-97.785184,16.2021424,19658
20,468,"Santiago Jocotepec",-95.9825936,17.6557382,14415
20,469,"Santiago Juxtlahuaca",-98.0187747,17.1941668,37111
20,470,"Santiago Lachiguiri",-95.5261177,16.7736913,4881
20,471,"Santiago Lalopa",-96.2506461,17.414526,513
20,472,"Santiago Laollaga",-95.2611418,16.6231136,3494
20,473,"Santiago Laxopa",-96.3259446,17.2004195,1355
20,474,"Santiago Llano Grande",-98.2608235,16.4853666,3386
20,475,"Santiago Matatlán",-96.4227491,16.829781,10211
20,476,"Santiago Miltepec",-97.7195652,17.981738,422
20,477,"Santiago Minas",-97.2663467,16.4395443,1443
20,478,"Santiago Nacaltepec",-96.9120339,17.5232911,1825
20,479,"Santiago Nejapilla",-97.3869518,17.4283553,211
20,480,"Santiago Nundiche",-97.7012952,17.3350667,942
20,481,"Santiago Nuyoó",-97.7597902,17.0064708,1823
20,482,"Santiago Pinotepa Nacional",-98.1213924,16.2924003,54872
20,483,"Santiago Suchilquitongo",-96.9103919,17.2313169,10855
20,484,"Santiago Tamazola",-98.234704,17.7340679,4598
20,485,"Santiago Tapextla",-98.4659785,16.3330934,3175
20,486,"Villa Tejúpam de la Unión",-97.4637557,17.6662029,2543
20,487,"Santiago Tenango",-96.9985821,17.2894203,2098
20,488,"Santiago Tepetlapa",-97.397337,17.7920755,124
20,489,"Santiago Tetepec",-97.6774334,16.3416915,5087
20,490,"Santiago Texcalcingo",-96.9787481,18.2151262,3204
20,491,"Santiago Textitlán",-97.3091462,16.7211339,4542
20,492,"Santiago Tilantongo",-97.3534315,17.2102228,3038
20,493,"Santiago Tillo",-97.3148757,17.4677011,559
20,494,"Santiago Tlazoyaltepec",-96.9712589,17.0271307,4885
20,495,"Santiago Xanica",-96.2186099,16.0045254,3099
20,496,"Santiago Xiacuí",-96.3937979,17.2723803,2140
20,497,"Santiago Yaitepec",-97.2378897,16.2085637,4444
20,498,"Santiago Yaveo",-95.4906305,17.4992686,7051
20,499,"Santiago Yolomécatl",-97.5744359,17.4698216,2197
20,500,"Santiago Yosondúa",-97.5311382,16.8504763,8602
20,501,"Santiago Yucuyachi",-98.2205989,17.6143592,940
20,502,"Santiago Zacatepec",-95.8849303,17.1942456,5453
20,503,"Santiago Zoochila",-96.2515746,17.2168591,405
20,504,"Nuevo Zoquiápam",-96.6465811,17.2610745,1680
20,505,"Santo Domingo Ingenio",-94.7315566,16.5796053,8260
20,506,"Santo Domingo Albarradas",-96.2103565,17.0712165,795
20,507,"Santo Domingo Armenta",-98.3646225,16.3289664,3507
20,508,"Santo Domingo Chihuitán",-95.1736937,16.6299795,1570
20,509,"Santo Domingo de Morelos",-96.6344135,15.8335467,11466
20,510,"Santo Domingo Ixcatlán",-97.5239475,16.9090856,708
20,511,"Santo Domingo Nuxaá",-97.0667534,17.1737956,3347
20,512,"Santo Domingo Ozolotepec",-96.3144144,16.175974,860
20,513,"Santo Domingo Petapa",-95.2186666,16.8540827,9406
20,514,"Santo Domingo Roayaga",-96.0709067,17.3322218,1053
20,515,"Santo Domingo Tehuantepec",-95.391596,16.2217104,67634
20,516,"Santo Domingo Teojomulco",-97.2772268,16.575726,5131
20,517,"Santo Domingo Tepuxtepec",-96.0777839,16.9325514,5798
20,518,"Santo Domingo Tlatayápam",-97.340516,17.401798,143
20,519,"Santo Domingo Tomaltepec",-96.5908933,17.0720203,3059
20,520,"Santo Domingo Tonalá",-97.9859628,17.6813475,7199
20,521,"Santo Domingo Tonaltepec",-97.3533883,17.6072662,249
20,522,"Santo Domingo Xagacía",-96.2913459,17.125222,1194
20,523,"Santo Domingo Yanhuitlán",-97.3482201,17.5329678,1609
20,524,"Santo Domingo Yodohino",-97.7007253,17.6344576,321
20,525,"Santo Domingo Zanatepec",-94.3323383,16.4644965,12557
20,526,"Santos Reyes Nopala",-97.1883168,16.0807467,18121
20,527,"Santos Reyes Pápalo",-96.8752636,17.7936793,2745
20,528,"Santos Reyes Tepejillo",-97.9502564,17.4228333,1034
20,529,"Santos Reyes Yucuná",-98.0059056,17.7724148,1353
20,530,"Santo Tomás Jalieza",-96.6376905,16.8665736,3697
20,531,"Santo Tomás Mazaltepec",-96.911934,17.1468686,2707
20,532,"Santo Tomás Ocotepec",-97.7821683,17.1144227,3924
20,533,"Santo Tomás Tamazulapan",-96.58044,16.2418307,2309
20,534,"San Vicente Coatlán",-96.8335172,16.3727737,4059
20,535,"San Vicente Lachixío",-97.0382226,16.6524249,2965
20,536,"San Vicente Nuñú",-97.4355999,17.4303468,448
20,537,"Silacayoápam",-98.1439227,17.5607463,6827
20,538,"Sitio de Xitlapehua",-96.5387928,16.3602433,714
20,539,"Soledad Etla",-96.8263007,17.1606677,5859
20,540,"Villa de Tamazulápam del Progreso",-97.5802302,17.6902957,7964
20,541,"Tanetze de Zaragoza",-96.2940096,17.3841413,1700
20,542,"Taniche",-96.7693061,16.5713064,829
20,543,"Tataltepec de Valdés",-97.5349423,16.3096522,5978
20,544,"Teococuilco de Marcos Pérez",-96.6706951,17.3277566,996
20,545,"Teotitlán de Flores Magón",-97.112214,18.1073774,10254
20,546,"Teotitlán del Valle",-96.5172937,17.0556721,6063
20,547,"Teotongo",-97.5385059,17.7486419,976
20,548,"Tepelmeme Villa de Morelos",-97.3010885,18.0068834,1692
20,549,"Heroica Villa Tezoatlán de Segura y Luna, Cuna de la Independencia de Oaxaca",-97.8584962,17.582239,11397
20,550,"San Jerónimo Tlacochahuaya",-96.5487025,17.0077181,5704
20,551,"Tlacolula de Matamoros",-96.3593467,16.873584,23673
20,552,"Tlacotepec Plumas",-97.4755414,17.872013,468
20,553,"Tlalixtac de Cabrera",-96.6163856,17.0941325,10800
20,554,"Totontepec Villa de Morelos",-96.0211267,17.245024,5559
20,555,"Trinidad Zaachila",-96.7923615,16.9295143,3078
20,556,"La Trinidad Vista Hermosa",-97.5014692,17.7771768,260
20,557,"Unión Hidalgo",-94.8231202,16.4873716,15921
20,558,"Valerio Trujano",-96.9882347,17.765046,1465
20,559,"San Juan Bautista Valle Nacional",-96.3347667,17.7973109,23322
20,560,"Villa Díaz Ordaz",-96.380197,17.0578934,6921
20,561,"Yaxe",-96.4479951,16.7086475,2918
20,562,"Magdalena Yodocono de Porfirio Díaz",-97.3950144,17.3785317,1589
20,563,"Yogana",-96.797819,16.4423548,1285
20,564,"Yutanduchi de Guerrero",-97.2964402,17.077315,1203
20,565,"Villa de Zaachila",-96.7665726,16.9496834,46036
20,566,"San Mateo Yucutindoo",-97.3821657,16.780479,3157
20,567,"Zapotitlán Lagunas",-98.3969615,17.7761721,3262
20,568,"Zapotitlán Palmas",-97.8348883,17.8825113,1494
20,569,"Santa Inés de Zaragoza",-97.1413988,17.2748889,1672
20,570,"Zimatlán de Álvarez",-97.0346936,16.7802451,20783
21,1,"Acajete",-97.9398265,19.1033013,68329
21,2,"Acateno",-97.2298041,20.1091535,9631
21,3,"Acatlán",-98.1064026,18.1589329,37471
21,4,"Acatzingo",-97.7649832,19.0261109,61697
21,5,"Acteopan",-98.6790898,18.7593894,3120
21,6,"Ahuacatlán",-97.8676829,20.0269507,16582
21,7,"Ahuatlán",-98.2828109,18.575656,3424
21,8,"Ahuazotepec",-98.1336229,20.0611636,11950
21,9,"Ahuehuetitla",-98.1911174,18.2312933,1900
21,10,"Ajalpan",-97.1256111,18.4215666,69359
21,11,"Albino Zertuche",-98.5471058,18.0106943,1897
21,12,"Aljojuca",-97.517423,19.1025992,6874
21,13,"Altepexi",-97.3003686,18.3563442,22309
21,14,"Amixtlán",-97.8006816,20.0558143,5224
21,15,"Amozoc",-98.0531078,19.0472763,123885
21,16,"Aquixtla",-97.9302425,19.7722879,9099
21,17,"Atempan",-97.4409057,19.8116783,29710
21,18,"Atexcal",-97.6900814,18.3755726,3978
21,19,"Atlixco",-98.4522922,18.8990699,142646
21,20,"Atoyatempan",-97.9090745,18.8060137,7359
21,21,"Atzala",-98.5417164,18.5470439,1380
21,22,"Atzitzihuacán",-98.6077721,18.8230805,12844
21,23,"Atzitzintla",-97.3039894,18.9337884,9644
21,24,"Axutla",-98.3935084,18.1846833,974
21,25,"Ayotoxco de Guerrero",-97.408781,20.0839899,9040
21,26,"Calpan",-98.4762191,19.1064415,15231
21,27,"Caltepec",-97.4868416,18.1426868,4151
21,28,"Camocuautla",-97.752947,20.0308279,2762
21,29,"Caxhuacan",-97.6063013,20.0734919,3921
21,30,"Coatepec",-97.7310507,20.0551527,792
21,31,"Coatzingo",-98.1649228,18.5711659,3113
21,32,"Cohetzala",-98.7885318,18.1904929,1408
21,33,"Cohuecan",-98.7182052,18.7458189,5140
21,34,"Coronango",-98.2917455,19.1352347,42543
21,35,"Coxcatlán",-97.1172332,18.2455936,21690
21,36,"Coyomeapan",-96.9659423,18.2823499,14761
21,37,"Coyotepec",-97.8129542,18.4013251,2431
21,38,"Cuapiaxtla de Madero",-97.8263752,18.9201869,10533
21,39,"Cuautempan",-97.7921275,19.9135702,9826
21,40,"Cuautinchán",-98.0451033,18.9616474,10785
21,41,"Cuautlancingo",-98.2560768,19.1167177,123785
21,42,"Cuayuca de Andrade",-98.1889892,18.4456663,3284
21,43,"Cuetzalan del Progreso",-97.5005815,20.0279835,50976
21,44,"Cuyoaco",-97.5732592,19.5966601,16578
21,45,"Chalchicomula de Sesma",-97.4297098,18.977342,49651
21,46,"Chapulco",-97.4036399,18.6396405,8151
21,47,"Chiautla",-98.6006197,18.2764959,21000
21,48,"Chiautzingo",-98.513343,19.1956023,21288
21,49,"Chiconcuautla",-97.965983,20.0887546,17439
21,50,"Chichiquila",-97.0700862,19.204724,27178
21,51,"Chietla",-98.6259095,18.5103672,36312
21,52,"Chigmecatitlán",-98.0593489,18.6487958,1250
21,53,"Chignahuapan",-98.1347437,19.8210219,65612
21,54,"Chignautla",-97.4365573,19.735559,35792
21,55,"Chila",-97.8792388,17.9602475,4839
21,56,"Chila de la Sal",-98.4700098,18.1395558,1484
21,57,"Honey",-98.2388775,20.2601597,8276
21,58,"Chilchotla",-97.2135639,19.2582721,20854
21,59,"Chinantla",-98.2795871,18.2329309,2402
21,60,"Domingo Arenas",-98.4411403,19.1321653,7835
21,61,"Eloxochitlán",-96.9267014,18.5067809,13380
21,62,"Epatlán",-98.3762625,18.615591,5061
21,63,"Esperanza",-97.3646252,18.8590321,15667
21,64,"Francisco Z. Mena",-97.8131619,20.710535,17829
21,65,"General Felipe Ángeles",-97.6675124,19.0207186,21655
21,66,"Guadalupe",-98.1511474,18.0483801,6122
21,67,"Guadalupe Victoria",-97.3801341,19.3164155,17911
21,68,"Hermenegildo Galeana",-97.7311824,20.1167643,8113
21,69,"Huaquechula",-98.517174,18.7692862,26246
21,70,"Huatlatlauca",-98.0678448,18.6837875,6809
21,71,"Huauchinango",-98.0517353,20.1662114,110289
21,72,"Huehuetla",-97.6194713,20.1015301,19430
21,73,"Huehuetlán el Chico",-98.7304009,18.3770511,8957
21,74,"Huejotzingo",-98.4487791,19.1671204,77381
21,75,"Hueyapan",-97.4011295,19.9218301,13454
21,76,"Hueytamalco",-97.3101679,20.0306061,27706
21,77,"Hueytlalpan",-97.6841606,20.0431523,5745
21,78,"Huitzilan de Serdán",-97.7133002,19.9437484,15761
21,79,"Huitziltepec",-97.8596323,18.7669293,5761
21,80,"Atlequizayan",-97.6273346,20.0146869,2821
21,81,"Ixcamilpa de Guerrero",-98.7123187,18.0344432,3790
21,82,"Ixcaquixtla",-97.8334941,18.4816577,9305
21,83,"Ixtacamaxtitlán",-97.8582955,19.6240459,25722
21,84,"Ixtepec",-97.6414446,20.0406406,7458
21,85,"Izúcar de Matamoros",-98.4470103,18.5019159,81758
21,86,"Jalpan",-97.8759472,20.4561476,12803
21,87,"Jolalpan",-98.9156622,18.3071969,13723
21,88,"Jonotla",-97.526481,20.0786763,4816
21,89,"Jopala",-97.7779788,20.2064003,13715
21,90,"Juan C. Bonilla",-98.3454607,19.1193265,22211
21,91,"Juan Galindo",-97.9965859,20.2236978,11345
21,92,"Juan N. Méndez",-97.7398785,18.5320908,5544
21,93,"Lafragua",-97.2937223,19.2811041,8178
21,94,"Libres",-97.6761353,19.4691545,35646
21,95,"La Magdalena Tlatlauquitepec",-98.1024894,18.7418233,589
21,96,"Mazapiltepec de Juárez",-97.6920071,19.1511232,2977
21,97,"Mixtla",-97.8917064,18.9077249,2480
21,98,"Molcaxac",-97.8698052,18.6686151,6559
21,99,"Cañada Morelos",-97.4281256,18.7331574,20314
21,100,"Naupan",-98.102861,20.245273,10447
21,101,"Nauzontla",-97.5889866,19.9630735,3626
21,102,"Nealtican",-98.4471167,19.0612016,13082
21,103,"Nicolás Bravo",-97.3375375,18.6275188,6614
21,104,"Nopalucan",-97.8333012,19.1906162,32583
21,105,"Ocotepec",-97.6738197,19.5555191,5037
21,106,"Ocoyucan",-98.3191355,18.9316672,29662
21,107,"Olintla",-97.6718181,20.1124274,12327
21,108,"Oriental",-97.5834366,19.3264986,19119
21,109,"Pahuatlán",-98.1373665,20.2932706,23059
21,110,"Palmar de Bravo",-97.5355766,18.835006,48482
21,111,"Pantepec",-97.8768262,20.554907,19420
21,112,"Petlalcingo",-97.9158798,18.0691192,10166
21,113,"Piaxtla",-98.2707513,18.1139748,4606
21,114,"Puebla",-98.1749532,19.0084331,1685804
21,115,"Quecholac",-97.6344706,18.9481578,53488
21,116,"Quimixtlán",-97.1133856,19.2537355,23157
21,117,"Rafael Lara Grajales",-97.8165256,19.2479413,14716
21,118,"Los Reyes de Juárez",-97.8239024,18.9624352,28916
21,119,"San Andrés Cholula",-98.2897525,19.0241412,150647
21,120,"San Antonio Cañada",-97.2736869,18.4970092,5818
21,121,"San Diego la Mesa Tochimiltzingo",-98.3358627,18.7674144,1258
21,122,"San Felipe Teotlalcingo",-98.5259403,19.2315185,10902
21,123,"San Felipe Tepatlán",-97.7867602,20.111522,4139
21,124,"San Gabriel Chilac",-97.3839688,18.3181302,16549
21,125,"San Gregorio Atzompa",-98.3456193,19.0104902,9487
21,126,"San Jerónimo Tecuanipan",-98.3937517,19.0349214,6573
21,127,"San Jerónimo Xayacatlán",-97.9216866,18.198499,3681
21,128,"San José Chiapa",-97.7285711,19.2546746,9211
21,129,"San José Miahuatlán",-97.2900666,18.2288706,14026
21,130,"San Juan Atenco",-97.5518906,19.0470689,3538
21,131,"San Juan Atzompa",-98.030487,18.7448041,932
21,132,"San Martín Texmelucan",-98.428513,19.2689564,160890
21,133,"San Martín Totoltepec",-98.3552411,18.6577226,684
21,134,"San Matías Tlalancaleca",-98.5028223,19.3466507,21435
21,135,"San Miguel Ixitlán",-97.7698854,18.0119192,534
21,136,"San Miguel Xoxtla",-98.3064453,19.1726638,13173
21,137,"San Nicolás Buenos Aires",-97.4975324,19.2231126,10392
21,138,"San Nicolás de los Ranchos",-98.5669312,19.0794256,12287
21,139,"San Pablo Anicano",-98.1389354,18.1419352,3756
21,140,"San Pedro Cholula",-98.3431306,19.0729637,138209
21,141,"San Pedro Yeloixtlahuaca",-98.0440369,18.0406694,3508
21,142,"San Salvador el Seco",-97.6139171,19.1539455,31872
21,143,"San Salvador el Verde",-98.5613383,19.2445862,33008
21,144,"San Salvador Huixcolotla",-97.7723333,18.9265171,15688
21,145,"San Sebastián Tlacotepec",-96.8288025,18.3795833,14656
21,146,"Santa Catarina Tlaltempan",-98.0791385,18.6159004,850
21,147,"Santa Inés Ahuatempan",-98.0492718,18.4032972,6649
21,148,"Santa Isabel Cholula",-98.3853185,18.9748326,9396
21,149,"Santiago Miahuatlán",-97.424866,18.5554578,26745
21,150,"Huehuetlán el Grande",-98.1569649,18.7571762,7581
21,151,"Santo Tomás Hueyotlipan",-97.8652208,18.8875161,9016
21,152,"Soltepec",-97.7460926,19.12066,12944
21,153,"Tecali de Herrera",-97.9682282,18.8870045,23255
21,154,"Tecamachalco",-97.7312203,18.8593027,81144
21,155,"Tecomatlán",-98.3143356,18.0529034,6033
21,156,"Tehuacán",-97.4450838,18.4612876,335085
21,157,"Tehuitzingo",-98.3039512,18.3531902,11792
21,158,"Tenampulco",-97.4016048,20.1892034,7459
21,159,"Teopantlán",-98.2505978,18.7294645,3943
21,160,"Teotlalco",-98.8387404,18.4504584,3321
21,161,"Tepanco de López",-97.5430156,18.5538963,21602
21,162,"Tepango de Rodríguez",-97.7843278,20.0084576,4330
21,163,"Tepatlaxco de Hidalgo",-98.0036013,19.1452239,18298
21,164,"Tepeaca",-97.8761638,19.0119289,84739
21,165,"Tepemaxalco",-98.6329405,18.7397547,1161
21,166,"Tepeojuma",-98.4312748,18.7217725,8915
21,167,"Tepetzintla",-97.8530431,19.9494904,11936
21,168,"Tepexco",-98.6540005,18.6463173,7160
21,169,"Tepexi de Rodríguez",-97.9373391,18.4967486,22215
21,170,"Tepeyahualco",-97.463275,19.4796081,17879
21,171,"Tepeyahualco de Cuauhtémoc",-97.8666795,18.8063122,3752
21,172,"Tetela de Ocampo",-97.7857337,19.8182111,29466
21,173,"Teteles de Avila Castillo",-97.4493634,19.854371,6255
21,174,"Teziutlán",-97.3585755,19.8638058,104051
21,175,"Tianguismanalco",-98.4791456,19.0001856,13209
21,176,"Tilapa",-98.5419909,18.614302,9045
21,177,"Tlacotepec de Benito Juárez",-97.6288709,18.6557096,54728
21,178,"Tlacuilotepec",-97.996198,20.3777429,17624
21,179,"Tlachichuca",-97.3521202,19.1336119,30723
21,180,"Tlahuapan",-98.5853217,19.362283,42036
21,181,"Tlaltenango",-98.3428421,19.1564969,7404
21,182,"Tlanepantla",-97.8853208,18.8570101,5266
21,183,"Tlaola",-97.9098092,20.1673093,21214
21,184,"Tlapacoya",-97.8382792,20.1298241,6819
21,185,"Tlapanalá",-98.5361971,18.6899646,8914
21,186,"Tlatlauquitepec",-97.4993479,19.8421409,56689
21,187,"Tlaxco",-98.0488721,20.3998271,5647
21,188,"Tochimilco",-98.6122058,18.9224675,18801
21,189,"Tochtepec",-97.8212,18.828451,22260
21,190,"Totoltepec de Guerrero",-97.8480467,18.2915396,1271
21,191,"Tulcingo",-98.3975593,17.9750779,9963
21,192,"Tuzamapan de Galeana",-97.5305825,20.1038155,6708
21,193,"Tzicatlacoyan",-98.0417354,18.8161964,7345
21,194,"Venustiano Carranza",-97.6872441,20.5083508,30902
21,195,"Vicente Guerrero",-97.1820646,18.5303491,25726
21,196,"Xayacatlán de Bravo",-97.946515,18.2782505,1654
21,197,"Xicotepec",-97.9026266,20.3266179,85355
21,198,"Xicotlán",-98.600581,18.0956337,1276
21,199,"Xiutetelco",-97.3599199,19.7225358,42285
21,200,"Xochiapulco",-97.6467834,19.8479519,3634
21,201,"Xochiltepec",-98.3369628,18.6581003,3471
21,202,"Xochitlán de Vicente Suárez",-97.6536131,19.938886,13321
21,203,"Xochitlán Todos Santos",-97.7779312,18.6958058,6745
21,204,"Yaonáhuac",-97.4424769,19.9196201,8402
21,205,"Yehualtepec",-97.6782512,18.7675497,26198
21,206,"Zacapala",-98.0524829,18.5800842,4628
21,207,"Zacapoaxtla",-97.5812727,19.8543697,58383
21,208,"Zacatlán",-97.9990115,19.9649199,86810
21,209,"Zapotitlán",-97.5218993,18.2774173,8916
21,210,"Zapotitlán de Méndez",-97.692609,20.0041504,5896
21,211,"Zaragoza",-97.5685722,19.7472611,17151
21,212,"Zautla",-97.6826875,19.714298,20141
21,213,"Zihuateutla",-97.7982952,20.2990971,13981
21,214,"Zinacatepec",-97.2224726,18.3274378,17905
21,215,"Zongozotla",-97.7605239,19.9765405,5201
21,216,"Zoquiapan",-97.5668515,20.0333686,2584
21,217,"Zoquitlán",-96.9786686,18.3771121,19687
22,1,"Amealco de Bonfil",-100.0986327,20.1749105,67672
22,2,"Pinal de Amoles",-99.592688,21.1417418,27977
22,3,"Arroyo Seco",-99.6356043,21.4092386,14586
22,4,"Cadereyta de Montes",-99.6570261,20.7913847,75616
22,5,"Colón",-100.1005707,20.7582672,68110
22,6,"Corregidora",-100.4410749,20.4854421,202268
22,7,"Ezequiel Montes",-99.8666886,20.6492826,45130
22,8,"Huimilpan",-100.3142129,20.4038438,41696
22,9,"Jalpan de Serra",-99.3315905,21.3745728,29188
22,10,"Landa de Matamoros",-99.1918254,21.2576857,20172
22,11,"El Marqués",-100.2786175,20.7202283,173771
22,12,"Pedro Escobedo",-100.1724274,20.4719578,75212
22,13,"Peñamiller",-99.8299501,21.0976685,21661
22,14,"Querétaro",-100.4527103,20.7288054,961470
22,15,"San Joaquín",-99.5207612,20.9826653,10176
22,16,"San Juan del Río",-100.00038,20.3689115,296079
22,17,"Tequisquiapan",-99.952564,20.551173,77340
22,18,"Tolimán",-99.93444,20.9179618,30988
23,1,"Cozumel",-86.9088899,20.4448299,98713
23,2,"Felipe Carrillo Puerto",-88.0559897,19.6697451,91010
23,3,"Isla Mujeres",-86.9866439,21.3660569,22307
23,4,"Othón P. Blanco",-88.4669667,18.5086157,260945
23,5,"Benito Juárez",-86.9411169,21.0781881,825647
23,6,"José María Morelos",-88.8157469,19.63598,41962
23,7,"Lázaro Cárdenas",-87.3829081,21.0579957,30678
23,8,"Solidaridad",-87.3998227,20.5820556,233341
23,9,"Tulum",-87.6656856,20.3039276,36012
23,10,"Bacalar",-88.5312642,18.9756015,43926
23,11,"Puerto Morelos",-87.1299633,20.9375924,NA
24,1,"Ahualulco",-101.253311,22.450533,18985
24,2,"Alaquines",-99.6195045,22.0999259,8637
24,3,"Aquismón",-99.1119595,21.723624,50654
24,4,"Armadillo de los Infante",-100.6378286,22.2696062,4311
24,5,"Cárdenas",-99.6759929,21.9905238,19629
24,6,"Catorce",-101.0565151,23.645498,10144
24,7,"Cedral",-100.6737464,23.9303543,19961
24,8,"Cerritos",-100.2773366,22.4447838,22579
24,9,"Cerro de San Pedro",-100.7777638,22.1924759,4712
24,10,"Ciudad del Maíz",-99.7175318,22.4391451,35198
24,11,"Ciudad Fernández",-100.2115952,22.0158135,47261
24,12,"Tancanhuitz",-98.9597028,21.6316613,21621
24,13,"Ciudad Valles",-99.0631608,22.1073926,186346
24,14,"Coxcatlán",-98.9058268,21.5149896,16270
24,15,"Charcas",-101.1213773,23.2191378,21852
24,16,"Ebano",-98.5142176,22.2042265,45396
24,17,"Guadalcázar",-100.3037137,22.8665294,27544
24,18,"Huehuetlán",-98.9831842,21.5260065,16629
24,19,"Lagunillas",-99.6094968,21.6149334,5759
24,20,"Matehuala",-100.5872687,23.5133627,103260
24,21,"Mexquitic de Carmona",-101.1566926,22.2590433,58943
24,22,"Moctezuma",-101.1710738,22.7333505,20258
24,23,"Rayón",-99.6168088,21.8240954,16192
24,24,"Rioverde",-100.0345194,21.9619282,98418
24,25,"Salinas",-101.6291418,22.7981163,32979
24,26,"San Antonio",-98.8415352,21.6292097,9752
24,27,"San Ciro de Acosta",-99.8955838,21.5761453,10740
24,28,"San Luis Potosí",-100.9608886,22.2704792,864918
24,29,"San Martín Chalchicuautla",-98.6195036,21.3997867,22063
24,30,"San Nicolás Tolentino",-100.457769,22.169512,5393
24,31,"Santa Catarina",-99.4060261,21.5885536,12239
24,32,"Santa María del Río",-100.5542327,21.7679767,41644
24,33,"Santo Domingo",-101.6811118,23.3496196,12560
24,34,"San Vicente Tancuayalab",-98.5978545,21.7997937,15444
24,35,"Soledad de Graciano Sánchez",-100.8551336,22.2716247,324165
24,36,"Tamasopo",-99.3560977,21.9331502,31384
24,37,"Tamazunchale",-98.78472,21.2413069,99598
24,38,"Tampacán",-98.7457417,21.4176517,16154
24,39,"Tampamolón Corona",-98.7706597,21.5545793,15976
24,40,"Tamuín",-98.7353295,22.0936196,40502
24,41,"Tanlajás",-98.8261019,21.7227929,20538
24,42,"Tanquián de Escobedo",-98.6647239,21.6072886,15761
24,43,"Tierra Nueva",-100.4974204,21.6642375,9580
24,44,"Vanegas",-100.9140585,24.1105227,7994
24,45,"Venado",-101.0951226,22.9251354,15164
24,46,"Villa de Arriaga",-101.2731529,21.9686192,18433
24,47,"Villa de Guadalupe",-100.7175693,23.2126794,10143
24,48,"Villa de la Paz",-100.7568708,23.6649199,5566
24,49,"Villa de Ramos",-101.916313,22.9324175,38914
24,50,"Villa de Reyes",-100.9815357,21.8517619,51169
24,51,"Villa Hidalgo",-100.6734083,22.6407636,15488
24,52,"Villa Juárez",-100.1973454,22.2892323,10553
24,53,"Axtla de Terrazas",-98.8692131,21.4261804,38558
24,54,"Xilitla",-99.0254054,21.385887,54080
24,55,"Zaragoza",-100.6767205,22.0081735,26982
24,56,"Villa de Arista",-100.8043875,22.659931,15991
24,57,"Matlapa",-98.8373547,21.3293326,32074
24,58,"El Naranjo",-99.3659912,22.4901041,22901
25,1,"Ahome",-109.1331985,25.895648,476240
25,2,"Angostura",-108.1415433,25.1461064,50111
25,3,"Badiraguato",-107.3959647,25.5908547,32057
25,4,"Concordia",-105.9917878,23.4141687,29270
25,5,"Cosalá",-106.7994351,24.4814838,17215
25,6,"Culiacán",-107.2666539,24.6514903,955340
25,7,"Choix",-108.2770417,26.6803064,34467
25,8,"Elota",-106.8421376,24.0433903,58770
25,9,"Escuinapa",-105.685761,22.7240947,62109
25,10,"El Fuerte",-108.6789971,26.2553211,107393
25,11,"Guasave",-108.5581919,25.5345967,313977
25,12,"Mazatlán",-106.3059638,23.4684144,527505
25,13,"Mocorito",-107.7795865,25.3599209,48098
25,14,"Rosario",-105.8052048,23.0562349,56477
25,15,"Salvador Alvarado",-108.0760495,25.418455,86399
25,16,"San Ignacio",-106.3701764,23.9544948,22369
25,17,"Sinaloa",-108.1103204,25.9687898,94317
25,18,"Navolato",-107.7645976,24.7232523,158898
26,1,"Aconchi",-110.222371,29.7962174,2988
26,2,"Agua Prieta",-109.1974435,31.1044235,87750
26,3,"Alamos",-108.8769671,27.0510585,27674
26,4,"Altar",-111.9248742,31.1758972,10197
26,5,"Arivechi",-109.0504402,28.8728127,1278
26,6,"Arizpe",-110.1893112,30.4108942,2950
26,7,"Atil",-111.544905,30.8160156,636
26,8,"Bacadéhuachi",-109.0876886,29.8453414,1215
26,9,"Bacanora",-109.3856249,28.8929963,847
26,10,"Bacerac",-108.8197532,30.3103197,1518
26,11,"Bacoachi",-109.9790907,30.669708,1714
26,12,"Bácum",-110.1591241,27.7438851,24673
26,13,"Banámichi",-110.2732719,30.0610103,1767
26,14,"Baviácora",-110.1198071,29.62462,3646
26,15,"Bavispe",-109.0064864,30.6178209,1602
26,16,"Benjamín Hill",-111.2114093,30.1702241,5549
26,17,"Caborca",-112.5394862,30.8249523,91089
26,18,"Cajeme",-109.8867711,27.7928198,463623
26,19,"Cananea",-110.23532,30.9884602,37764
26,20,"Carbó",-111.0722845,29.7195836,5276
26,21,"La Colorada",-110.3826953,28.724312,2098
26,22,"Cucurpe",-110.6305796,30.4115377,1052
26,23,"Cumpas",-109.8099456,30.0674033,6682
26,24,"Divisaderos",-109.3768107,29.6154076,807
26,25,"Empalme",-110.6687274,28.0084942,60028
26,26,"Etchojoa",-109.6885338,27.0151371,65883
26,27,"Fronteras",-109.6479104,30.8485177,9274
26,28,"Granados",-109.312385,29.7611389,1158
26,29,"Guaymas",-110.6259476,28.1425636,168830
26,30,"Hermosillo",-111.4735094,29.0236734,933033
26,31,"Huachinera",-108.9153445,30.1231365,1390
26,32,"Huásabas",-109.3814121,29.9755088,980
26,33,"Huatabampo",-109.4063803,26.6506722,86177
